[
  {
    "id": "relation/6620184",
    "name": "Маркови Кули",
    "city": "Прилеп",
    "category": "Археолошко наоѓалиште/Тврдина/Кула",
    "lat": "41.3610558",
    "lon": "21.5394503"
  },
  {
    "id": "relation/15078753",
    "name": "Куќата на Мантови",
    "city": "Прилеп",
    "category": "Археолошко наоѓалиште/Тврдина/Кула",
    "lat": "41.3557382",
    "lon": "21.5404226"
  },
  {
    "id": "way/32463336",
    "name": "Скупи",
    "city": "Скопје",
    "category": "Археолошко наоѓалиште/Тврдина/Кула",
    "lat": "42.0150515",
    "lon": "21.3942891"
  },
  {
    "id": "way/33100249",
    "name": "Тетовско Кале",
    "city": "Тетово",
    "category": "Археолошко наоѓалиште/Тврдина/Кула",
    "lat": "42.0191243",
    "lon": "20.9616713"
  },
  {
    "id": "way/34093752",
    "name": "Самуилова тврдина",
    "city": "Охрид",
    "category": "Археолошко наоѓалиште/Тврдина/Кула",
    "lat": "41.1159332",
    "lon": "20.7918338"
  },
  {
    "id": "way/34093853",
    "name": "Антички театар",
    "city": "Охрид",
    "category": "Археолошко наоѓалиште/Тврдина/Кула",
    "lat": "41.114509",
    "lon": "20.7935224"
  },
  {
    "id": "way/34094279",
    "name": "Плаошник",
    "city": "Охрид",
    "category": "Археолошко наоѓалиште/Тврдина/Кула",
    "lat": "41.1137069",
    "lon": "20.7904973"
  },
  {
    "id": "way/37748507",
    "name": "Саат Кула",
    "city": "Битола",
    "category": "Археолошко наоѓалиште/Тврдина/Кула",
    "lat": "41.0309344",
    "lon": "21.333901"
  },
  {
    "id": "way/37956139",
    "name": "Хераклеа Линкестис",
    "city": "Битола",
    "category": "Археолошко наоѓалиште/Тврдина/Кула",
    "lat": "41.011223",
    "lon": "21.3434247"
  },
  {
    "id": "way/184307286",
    "name": "Средновековна Кула",
    "city": "Кочани",
    "category": "Археолошко наоѓалиште/Тврдина/Кула",
    "lat": "41.9215823",
    "lon": "22.4090133"
  },
  {
    "id": "way/189909367",
    "name": "Баргала",
    "city": "Штип",
    "category": "Археолошко наоѓалиште/Тврдина/Кула",
    "lat": "41.8007957",
    "lon": "22.2883548"
  },
  {
    "id": "way/209092691",
    "name": "Стоби",
    "city": "Велес",
    "category": "Археолошко наоѓалиште/Тврдина/Кула",
    "lat": "41.5500415",
    "lon": "21.9755211"
  },
  {
    "id": "way/212703196",
    "name": "Цареви Кули",
    "city": "Струмица",
    "category": "Археолошко наоѓалиште/Тврдина/Кула",
    "lat": "41.4326225",
    "lon": "22.6296717"
  },
  {
    "id": "way/217836998",
    "name": "Базилика \"Свети Еразмо\"",
    "city": "Охрид",
    "category": "Археолошко наоѓалиште/Тврдина/Кула",
    "lat": "41.140609",
    "lon": "20.7635431"
  },
  {
    "id": "way/223008200",
    "name": "Кале",
    "city": "Крушево",
    "category": "Археолошко наоѓалиште/Тврдина/Кула",
    "lat": "41.2574154",
    "lon": "21.3140441"
  },
  {
    "id": "way/226160304",
    "name": "Roman Theater of Heraclea Lyncestis",
    "city": "Битола",
    "category": "Археолошко наоѓалиште/Тврдина/Кула",
    "lat": "41.0114511",
    "lon": "21.3425547"
  },
  {
    "id": "way/226161294",
    "name": "Антички театар",
    "city": "Велес",
    "category": "Археолошко наоѓалиште/Тврдина/Кула",
    "lat": "41.5515315",
    "lon": "21.9752721"
  },
  {
    "id": "way/227433408",
    "name": "Вардарски Рид",
    "city": "Гевгелија",
    "category": "Археолошко наоѓалиште/Тврдина/Кула",
    "lat": "41.1493831",
    "lon": "22.5215329"
  },
  {
    "id": "way/229632394",
    "name": "Isar-Marvinci",
    "city": "Гевгелија",
    "category": "Археолошко наоѓалиште/Тврдина/Кула",
    "lat": "41.2780309",
    "lon": "22.4935572"
  },
  {
    "id": "way/231344771",
    "name": "Тумба Маџари",
    "city": "Скопје",
    "category": "Археолошко наоѓалиште/Тврдина/Кула",
    "lat": "42.0017126",
    "lon": "21.5048038"
  },
  {
    "id": "way/232843018",
    "name": "Маркови Кули",
    "city": "Скопје",
    "category": "Археолошко наоѓалиште/Тврдина/Кула",
    "lat": "41.8381428",
    "lon": "21.6990121"
  },
  {
    "id": "way/240346454",
    "name": "Градиште",
    "city": "Демир Хисар",
    "category": "Археолошко наоѓалиште/Тврдина/Кула",
    "lat": "41.2404842",
    "lon": "21.217376"
  },
  {
    "id": "way/240622723",
    "name": "Стибера",
    "city": "Прилеп",
    "category": "Археолошко наоѓалиште/Тврдина/Кула",
    "lat": "41.2442547",
    "lon": "21.3984167"
  },
  {
    "id": "way/334649006",
    "name": "Антигона",
    "city": "Неготино",
    "category": "Археолошко наоѓалиште/Тврдина/Кула",
    "lat": "41.5022631",
    "lon": "22.100127"
  },
  {
    "id": "way/414261893",
    "name": "Трескавец",
    "city": "Прилеп",
    "category": "Археолошко наоѓалиште/Тврдина/Кула",
    "lat": "41.4040148",
    "lon": "21.5385808"
  },
  {
    "id": "way/417361065",
    "name": "Исар",
    "city": "Штип",
    "category": "Археолошко наоѓалиште/Тврдина/Кула",
    "lat": "41.7374959",
    "lon": "22.1868037"
  },
  {
    "id": "way/474873958",
    "name": "Скопско кале",
    "city": "Скопје",
    "category": "Археолошко наоѓалиште/Тврдина/Кула",
    "lat": "42.0018674",
    "lon": "21.4326108"
  },
  {
    "id": "way/477021071",
    "name": "Штакле",
    "city": "Скопје",
    "category": "Археолошко наоѓалиште/Тврдина/Кула",
    "lat": "42.0055956",
    "lon": "21.4475562"
  },
  {
    "id": "way/502848605",
    "name": "Голема Базилика",
    "city": "Битола",
    "category": "Археолошко наоѓалиште/Тврдина/Кула",
    "lat": "41.0110152",
    "lon": "21.3420808"
  },
  {
    "id": "way/603405553",
    "name": "Roman \u0026 Ottoman Bathouse",
    "city": "Струмица",
    "category": "Археолошко наоѓалиште/Тврдина/Кула",
    "lat": "41.3829596",
    "lon": "22.7533399"
  },
  {
    "id": "way/677981810",
    "name": "Geoglif Sv. Nikole",
    "city": "Овче Поле",
    "category": "Археолошко наоѓалиште/Тврдина/Кула",
    "lat": "41.8300273",
    "lon": "21.9563597"
  },
  {
    "id": "way/807724824",
    "name": "Црквиште",
    "city": "Тетово",
    "category": "Археолошко наоѓалиште/Тврдина/Кула",
    "lat": "42.1566153",
    "lon": "21.1848235"
  },
  {
    "id": "way/808916278",
    "name": "Масакр кај Карпалак",
    "city": "Тетово",
    "category": "Археолошко наоѓалиште/Тврдина/Кула",
    "lat": "41.9765488",
    "lon": "21.1658829"
  },
  {
    "id": "way/821781063",
    "name": "Гориче",
    "city": "Демир Хисар",
    "category": "Археолошко наоѓалиште/Тврдина/Кула",
    "lat": "41.238278",
    "lon": "21.2004225"
  },
  {
    "id": "way/875859703",
    "name": "Кале",
    "city": "Прилеп",
    "category": "Археолошко наоѓалиште/Тврдина/Кула",
    "lat": "41.5233064",
    "lon": "21.3421019"
  },
  {
    "id": "way/888421002",
    "name": "Archaeological site of Mancevci, Early Christian Basilica 5 AC",
    "city": "Охрид",
    "category": "Археолошко наоѓалиште/Тврдина/Кула",
    "lat": "41.1128619",
    "lon": "20.7933808"
  },
  {
    "id": "way/899302511",
    "name": "Пешта",
    "city": "Битола",
    "category": "Археолошко наоѓалиште/Тврдина/Кула",
    "lat": "41.0887869",
    "lon": "21.7446621"
  },
  {
    "id": "way/899461223",
    "name": "Марков Ѕид",
    "city": "Прилеп",
    "category": "Археолошко наоѓалиште/Тврдина/Кула",
    "lat": "41.2994709",
    "lon": "21.5896937"
  },
  {
    "id": "way/899465453",
    "name": "Мариовски Манастир",
    "city": "Прилеп",
    "category": "Археолошко наоѓалиште/Тврдина/Кула",
    "lat": "41.1641326",
    "lon": "21.7260077"
  },
  {
    "id": "way/899472741",
    "name": "Градот / Маркови Кули",
    "city": "Прилеп",
    "category": "Археолошко наоѓалиште/Тврдина/Кула",
    "lat": "41.2073452",
    "lon": "21.7186287"
  },
  {
    "id": "way/899479869",
    "name": "Градиште",
    "city": "Прилеп",
    "category": "Археолошко наоѓалиште/Тврдина/Кула",
    "lat": "41.2047717",
    "lon": "21.6439389"
  },
  {
    "id": "way/899479870",
    "name": "Бабо",
    "city": "Прилеп",
    "category": "Археолошко наоѓалиште/Тврдина/Кула",
    "lat": "41.1969315",
    "lon": "21.6518979"
  },
  {
    "id": "way/899481750",
    "name": "Старо Бонче",
    "city": "Прилеп",
    "category": "Археолошко наоѓалиште/Тврдина/Кула",
    "lat": "41.2064705",
    "lon": "21.5884945"
  },
  {
    "id": "way/899481751",
    "name": "Пелагон",
    "city": "Прилеп",
    "category": "Археолошко наоѓалиште/Тврдина/Кула",
    "lat": "41.2081898",
    "lon": "21.6158057"
  },
  {
    "id": "way/903328344",
    "name": "Кула",
    "city": "Барбарос",
    "category": "Археолошко наоѓалиште/Тврдина/Кула",
    "lat": "41.5070976",
    "lon": "21.2735444"
  },
  {
    "id": "way/981848250",
    "name": "Лешок",
    "city": "Тетово",
    "category": "Археолошко наоѓалиште/Тврдина/Кула",
    "lat": "42.0669524",
    "lon": "21.0268403"
  },
  {
    "id": "way/1050278253",
    "name": "Девини Кули",
    "city": "Порече",
    "category": "Археолошко наоѓалиште/Тврдина/Кула",
    "lat": "41.5419808",
    "lon": "21.2384335"
  },
  {
    "id": "way/1054098604",
    "name": "Св. Никола",
    "city": "Прилеп",
    "category": "Археолошко наоѓалиште/Тврдина/Кула",
    "lat": "41.5187364",
    "lon": "21.3507412"
  },
  {
    "id": "way/1126512716",
    "name": "Куќата на Ѓошеви",
    "city": "Прилеп",
    "category": "Археолошко наоѓалиште/Тврдина/Кула",
    "lat": "41.3590079",
    "lon": "21.53295"
  },
  {
    "id": "way/1127758201",
    "name": "Битолска Тврдина",
    "city": "Битола",
    "category": "Археолошко наоѓалиште/Тврдина/Кула",
    "lat": "41.0161204",
    "lon": "21.3311077"
  },
  {
    "id": "way/1136815836",
    "name": "Мучеинци",
    "city": "Битола",
    "category": "Археолошко наоѓалиште/Тврдина/Кула",
    "lat": "41.2018152",
    "lon": "21.400072"
  },
  {
    "id": "node/390757439",
    "name": "Лихнид",
    "city": "Охрид",
    "category": "Археолошко наоѓалиште/Тврдина/Кула",
    "lat": "41.1155576",
    "lon": "20.7914836"
  },
  {
    "id": "node/1475328742",
    "name": "Rimska crkva",
    "city": "Скопје",
    "category": "Археолошко наоѓалиште/Тврдина/Кула",
    "lat": "42.0586697",
    "lon": "21.3527926"
  },
  {
    "id": "node/1475331129",
    "name": "Давина Кула",
    "city": "Скопје",
    "category": "Археолошко наоѓалиште/Тврдина/Кула",
    "lat": "42.0843452",
    "lon": "21.3548716"
  },
  {
    "id": "node/1475333181",
    "name": "Голема Кула - Кучково",
    "city": "Скопје",
    "category": "Археолошко наоѓалиште/Тврдина/Кула",
    "lat": "42.0587494",
    "lon": "21.2786993"
  },
  {
    "id": "node/1475333182",
    "name": "Мала Кула - Кучково",
    "city": "Скопје",
    "category": "Археолошко наоѓалиште/Тврдина/Кула",
    "lat": "42.0585741",
    "lon": "21.2844339"
  },
  {
    "id": "node/1734593430",
    "name": "Gradiste kaj s.Brazda",
    "city": "Скопје",
    "category": "Археолошко наоѓалиште/Тврдина/Кула",
    "lat": "42.0766913",
    "lon": "21.398848"
  },
  {
    "id": "node/1879436069",
    "name": "Костоперска Карпа",
    "city": "Куманово",
    "category": "Археолошко наоѓалиште/Тврдина/Кула",
    "lat": "42.1706665",
    "lon": "21.809838"
  },
  {
    "id": "node/1879461479",
    "name": "Кокино",
    "city": "Куманово",
    "category": "Археолошко наоѓалиште/Тврдина/Кула",
    "lat": "42.2633818",
    "lon": "21.953118"
  },
  {
    "id": "node/2015829492",
    "name": "Марков Град",
    "city": "Неготино",
    "category": "Археолошко наоѓалиште/Тврдина/Кула",
    "lat": "41.4094203",
    "lon": "22.2541295"
  },
  {
    "id": "node/2026891418",
    "name": "Орашко Кале",
    "city": "Тетово",
    "category": "Археолошко наоѓалиште/Тврдина/Кула",
    "lat": "42.1068795",
    "lon": "21.1545235"
  },
  {
    "id": "node/2026975410",
    "name": "Isar / Idomenae",
    "city": "Гевгелија",
    "category": "Археолошко наоѓалиште/Тврдина/Кула",
    "lat": "41.2775784",
    "lon": "22.4937679"
  },
  {
    "id": "node/2350137461",
    "name": "Римски театар",
    "city": "Велес",
    "category": "Археолошко наоѓалиште/Тврдина/Кула",
    "lat": "41.5516379",
    "lon": "21.9751675"
  },
  {
    "id": "node/2829462221",
    "name": "Мачка камен",
    "city": "Кратово",
    "category": "Археолошко наоѓалиште/Тврдина/Кула",
    "lat": "42.0853984",
    "lon": "21.9627449"
  },
  {
    "id": "node/4378846992",
    "name": "Vila Varvarka",
    "city": "Скопје",
    "category": "Археолошко наоѓалиште/Тврдина/Кула",
    "lat": "41.9130467",
    "lon": "21.4333848"
  },
  {
    "id": "node/4585716598",
    "name": "Китино Кале",
    "city": "Кичево",
    "category": "Археолошко наоѓалиште/Тврдина/Кула",
    "lat": "41.5130946",
    "lon": "20.9663459"
  },
  {
    "id": "node/5722266446",
    "name": "Konjuh",
    "city": "Кратово",
    "category": "Археолошко наоѓалиште/Тврдина/Кула",
    "lat": "42.1003011",
    "lon": "21.9665342"
  },
  {
    "id": "node/5724919828",
    "name": "Rotonda Konjuh",
    "city": "Кратово",
    "category": "Археолошко наоѓалиште/Тврдина/Кула",
    "lat": "42.0949995",
    "lon": "21.9658672"
  },
  {
    "id": "node/5725139643",
    "name": "Bargala",
    "city": "Штип",
    "category": "Археолошко наоѓалиште/Тврдина/Кула",
    "lat": "41.7995125",
    "lon": "22.289829"
  },
  {
    "id": "node/5728312945",
    "name": "Roman Bathhouse",
    "city": "Струмица",
    "category": "Археолошко наоѓалиште/Тврдина/Кула",
    "lat": "41.3825161",
    "lon": "22.7542141"
  },
  {
    "id": "node/5932385385",
    "name": "Резиденцијата Главинов",
    "city": "Скопје",
    "category": "Археолошко наоѓалиште/Тврдина/Кула",
    "lat": "41.958616",
    "lon": "21.4422187"
  },
  {
    "id": "node/6418857588",
    "name": "Кале",
    "city": "Преспа",
    "category": "Археолошко наоѓалиште/Тврдина/Кула",
    "lat": "41.0043725",
    "lon": "20.9282003"
  },
  {
    "id": "node/6535106716",
    "name": "Бањичко Кале",
    "city": "Кавадарци",
    "category": "Археолошко наоѓалиште/Тврдина/Кула",
    "lat": "41.6952366",
    "lon": "21.628172"
  },
  {
    "id": "node/7826733791",
    "name": "Битката на Ѓурѓејца",
    "city": "Кичево",
    "category": "Археолошко наоѓалиште/Тврдина/Кула",
    "lat": "41.4528994",
    "lon": "20.9658462"
  },
  {
    "id": "node/10914553383",
    "name": "Света Троица и Свети Ѓорѓија",
    "city": "Скопје",
    "category": "Археолошко наоѓалиште/Тврдина/Кула",
    "lat": "41.9538189",
    "lon": "21.288822"
  },
  {
    "id": "node/11107939919",
    "name": "Голема Пеш",
    "city": "Порече",
    "category": "Археолошко наоѓалиште/Тврдина/Кула",
    "lat": "41.8117124",
    "lon": "21.1617392"
  },
  {
    "id": "relation/6484321",
    "name": "Горна Бела Црква",
    "city": "Штип",
    "category": "Црква/Манастир",
    "lat": "41.0631826",
    "lon": "21.0324181"
  },
  {
    "id": "relation/6485670",
    "name": "Долна Бела Црква",
    "city": "Преспа",
    "category": "Црква/Манастир",
    "lat": "41.0302272",
    "lon": "21.0260679"
  },
  {
    "id": "relation/7425513",
    "name": "Бела Црква",
    "city": "Прилеп",
    "category": "Црква/Манастир",
    "lat": "41.2798868",
    "lon": "21.3553725"
  },
  {
    "id": "way/32855069",
    "name": "Црква Св. Димитриј",
    "city": "Скопје",
    "category": "Црква/Манастир",
    "lat": "41.9983981",
    "lon": "21.4342365"
  },
  {
    "id": "way/34094478",
    "name": "Св. Климент и Пантелејмон",
    "city": "Охрид",
    "category": "Црква/Манастир",
    "lat": "41.1125013",
    "lon": "20.7908012"
  },
  {
    "id": "way/38582552",
    "name": "Св. Димитриј Солунски",
    "city": "Битола",
    "category": "Црква/Манастир",
    "lat": "41.0299598",
    "lon": "21.3340939"
  },
  {
    "id": "way/38765140",
    "name": "Католичка црква Пресвето срце Исусово",
    "city": "Скопје",
    "category": "Црква/Манастир",
    "lat": "41.9950932",
    "lon": "21.4176045"
  },
  {
    "id": "way/122876772",
    "name": "Евангелска црква",
    "city": "Скопје",
    "category": "Црква/Манастир",
    "lat": "41.9991906",
    "lon": "21.4129989"
  },
  {
    "id": "way/123273638",
    "name": "Манастир Св. Пантелејмон",
    "city": "Скопје",
    "category": "Црква/Манастир",
    "lat": "41.9768504",
    "lon": "21.3743601"
  },
  {
    "id": "way/155870490",
    "name": "Св. Богородица",
    "city": "Гевгелија",
    "category": "Црква/Манастир",
    "lat": "41.0656111",
    "lon": "21.1043391"
  },
  {
    "id": "way/167661160",
    "name": "Evangelic-Methodist Church",
    "city": "Струмица",
    "category": "Црква/Манастир",
    "lat": "41.3811052",
    "lon": "22.8120917"
  },
  {
    "id": "way/172191987",
    "name": "Света Богородица - Матка",
    "city": "Скопје",
    "category": "Црква/Манастир",
    "lat": "41.962135",
    "lon": "21.2958384"
  },
  {
    "id": "way/175162437",
    "name": "Св. Архангел Михаил",
    "city": "Скопје",
    "category": "Црква/Манастир",
    "lat": "42.0022077",
    "lon": "21.4570304"
  },
  {
    "id": "way/175265123",
    "name": "Соборен храм Свети Климент Охридски",
    "city": "Скопје",
    "category": "Црква/Манастир",
    "lat": "41.9982824",
    "lon": "21.4264746"
  },
  {
    "id": "way/175391004",
    "name": "Пресв. Богородица",
    "city": "Скопје",
    "category": "Црква/Манастир",
    "lat": "41.9961927",
    "lon": "21.4391375"
  },
  {
    "id": "way/175671949",
    "name": "Св. Ѓорѓи",
    "city": "Скопје",
    "category": "Црква/Манастир",
    "lat": "42.0120358",
    "lon": "21.4437044"
  },
  {
    "id": "way/176176613",
    "name": "Св. Јован Крстител",
    "city": "Скопје",
    "category": "Црква/Манастир",
    "lat": "41.9930029",
    "lon": "21.4099171"
  },
  {
    "id": "way/176334067",
    "name": "Св. Георгиј",
    "city": "Скопје",
    "category": "Црква/Манастир",
    "lat": "42.0121418",
    "lon": "21.4241995"
  },
  {
    "id": "way/177401426",
    "name": "Св. Спас",
    "city": "Скопје",
    "category": "Црква/Манастир",
    "lat": "41.9946257",
    "lon": "21.5030458"
  },
  {
    "id": "way/177490047",
    "name": "Марков Манастир",
    "city": "Скопје",
    "category": "Црква/Манастир",
    "lat": "41.8935685",
    "lon": "21.4019815"
  },
  {
    "id": "way/177490048",
    "name": "Св. Димитрија",
    "city": "Скопје",
    "category": "Црква/Манастир",
    "lat": "41.8935746",
    "lon": "21.4021727"
  },
  {
    "id": "way/177518302",
    "name": "Св. Петка",
    "city": "Куманово",
    "category": "Црква/Манастир",
    "lat": "42.1702918",
    "lon": "21.8109533"
  },
  {
    "id": "way/177683948",
    "name": "Евагелистичка Методистичка Црква",
    "city": "Скопје",
    "category": "Црква/Манастир",
    "lat": "41.9965678",
    "lon": "21.4235502"
  },
  {
    "id": "way/179291828",
    "name": "Манастир „Свети Наум“",
    "city": "Охрид",
    "category": "Црква/Манастир",
    "lat": "40.913963",
    "lon": "20.7404962"
  },
  {
    "id": "way/179607964",
    "name": "Свети Илија",
    "city": "Скопје",
    "category": "Црква/Манастир",
    "lat": "41.985899",
    "lon": "21.4580119"
  },
  {
    "id": "way/181986735",
    "name": "Лесновски манастир",
    "city": "Пробиштип",
    "category": "Црква/Манастир",
    "lat": "42.0133138",
    "lon": "22.2274526"
  },
  {
    "id": "way/181986741",
    "name": "Св. Архангел Михаил",
    "city": "Пробиштип",
    "category": "Црква/Манастир",
    "lat": "42.0133035",
    "lon": "22.2281268"
  },
  {
    "id": "way/194610965",
    "name": "Св. Софија",
    "city": "Охрид",
    "category": "Црква/Манастир",
    "lat": "41.1122375",
    "lon": "20.7939374"
  },
  {
    "id": "way/197146942",
    "name": "Св. Архангел Михаил",
    "city": "Гостивар",
    "category": "Црква/Манастир",
    "lat": "41.7639049",
    "lon": "20.8373423"
  },
  {
    "id": "way/197929849",
    "name": "Св. Спас",
    "city": "Битола",
    "category": "Црква/Манастир",
    "lat": "41.261401",
    "lon": "21.4867188"
  },
  {
    "id": "way/205985909",
    "name": "Св. Никола",
    "city": "Прилеп",
    "category": "Црква/Манастир",
    "lat": "41.2588989",
    "lon": "21.4227476"
  },
  {
    "id": "way/206265206",
    "name": "Св. Илија",
    "city": "Прилеп",
    "category": "Црква/Манастир",
    "lat": "41.3416812",
    "lon": "21.3996227"
  },
  {
    "id": "way/209067749",
    "name": "Св. Димитриј Солунски",
    "city": "Прилеп",
    "category": "Црква/Манастир",
    "lat": "41.3893465",
    "lon": "21.6425531"
  },
  {
    "id": "way/209649620",
    "name": "Св. Теодор Тирон",
    "city": "Прилеп",
    "category": "Црква/Манастир",
    "lat": "41.3358897",
    "lon": "21.335902"
  },
  {
    "id": "way/209649621",
    "name": "Пресв. Богородица",
    "city": "Прилеп",
    "category": "Црква/Манастир",
    "lat": "41.3354538",
    "lon": "21.3291938"
  },
  {
    "id": "way/209650385",
    "name": "Св. Николај",
    "city": "Прилеп",
    "category": "Црква/Манастир",
    "lat": "41.3336525",
    "lon": "21.3312995"
  },
  {
    "id": "way/210097532",
    "name": "Преображение Христово",
    "city": "Порече",
    "category": "Црква/Манастир",
    "lat": "41.6624994",
    "lon": "21.2200983"
  },
  {
    "id": "way/210252893",
    "name": "Пресвета Богородица",
    "city": "Битола",
    "category": "Црква/Манастир",
    "lat": "41.030395",
    "lon": "21.3391579"
  },
  {
    "id": "way/210253741",
    "name": "Св. Недела",
    "city": "Битола",
    "category": "Црква/Манастир",
    "lat": "41.0407027",
    "lon": "21.3489261"
  },
  {
    "id": "way/216591495",
    "name": "Св. Константин и Елена",
    "city": "Прилеп",
    "category": "Црква/Манастир",
    "lat": "41.2649846",
    "lon": "21.437548"
  },
  {
    "id": "way/219775049",
    "name": "Света Богородица",
    "city": "Охрид",
    "category": "Црква/Манастир",
    "lat": "40.910244",
    "lon": "20.7452763"
  },
  {
    "id": "way/219789600",
    "name": "Свети Атанасиј",
    "city": "Охрид",
    "category": "Црква/Манастир",
    "lat": "40.911393",
    "lon": "20.7492303"
  },
  {
    "id": "way/219799845",
    "name": "Свети Илија",
    "city": "Битола",
    "category": "Црква/Манастир",
    "lat": "40.8783463",
    "lon": "21.3579069"
  },
  {
    "id": "way/220246861",
    "name": "Св. Јован Крстител",
    "city": "Прилеп",
    "category": "Црква/Манастир",
    "lat": "41.4614467",
    "lon": "21.5704026"
  },
  {
    "id": "way/223427542",
    "name": "Св. Петар и Павле",
    "city": "Скопје",
    "category": "Црква/Манастир",
    "lat": "42.0092594",
    "lon": "21.3618767"
  },
  {
    "id": "way/223539604",
    "name": "Св. Злата Мегленска",
    "city": "Скопје",
    "category": "Црква/Манастир",
    "lat": "42.0040936",
    "lon": "21.3328586"
  },
  {
    "id": "way/227939343",
    "name": "Црква Св. Кузман и Дамјан - Триангла",
    "city": "Скопје",
    "category": "Црква/Манастир",
    "lat": "41.9988564",
    "lon": "21.4923594"
  },
  {
    "id": "way/230351059",
    "name": "Св. Атанас",
    "city": "Скопје",
    "category": "Црква/Манастир",
    "lat": "41.9712482",
    "lon": "21.3100148"
  },
  {
    "id": "way/233274323",
    "name": "Македонска православна црква – Охридска архиепископија",
    "city": "Охрид",
    "category": "Црква/Манастир",
    "lat": "41.1139618",
    "lon": "20.7957467"
  },
  {
    "id": "way/233274330",
    "name": "Св. Јован Канео",
    "city": "Охрид",
    "category": "Црква/Манастир",
    "lat": "41.1111762",
    "lon": "20.7886328"
  },
  {
    "id": "way/235728306",
    "name": "Пештерна Црква \"Св. Богородица\" - Калишта",
    "city": "Струга",
    "category": "Црква/Манастир",
    "lat": "41.1447305",
    "lon": "20.650194"
  },
  {
    "id": "way/236587123",
    "name": "Св. Преображение",
    "city": "Струга",
    "category": "Црква/Манастир",
    "lat": "41.3883778",
    "lon": "20.656571"
  },
  {
    "id": "way/246171790",
    "name": "Црква \"Пресвета Богородица\"",
    "city": "Гостивар",
    "category": "Црква/Манастир",
    "lat": "41.7932548",
    "lon": "20.9108785"
  },
  {
    "id": "way/247817665",
    "name": "Св.Спас",
    "city": "Скопје",
    "category": "Црква/Манастир",
    "lat": "41.9350625",
    "lon": "21.5176547"
  },
  {
    "id": "way/248662336",
    "name": "Црква „Св. Григориј Палама и Димитриј“",
    "city": "Струмица",
    "category": "Црква/Манастир",
    "lat": "41.4369344",
    "lon": "22.6440058"
  },
  {
    "id": "way/266824490",
    "name": "Црква \"Свети Ѓорѓија\"",
    "city": "Порече",
    "category": "Црква/Манастир",
    "lat": "41.7920402",
    "lon": "20.8779475"
  },
  {
    "id": "way/267077609",
    "name": "Црква \"Свети Ѓорѓија\"",
    "city": "Гостивар",
    "category": "Црква/Манастир",
    "lat": "41.81856",
    "lon": "20.8767101"
  },
  {
    "id": "way/268599233",
    "name": "Црква \"Св. Јован Крстител\"",
    "city": "Скопје",
    "category": "Црква/Манастир",
    "lat": "41.7333058",
    "lon": "20.828356"
  },
  {
    "id": "way/268599844",
    "name": "Црква \"Св. Никола\"",
    "city": "Демир Хисар",
    "category": "Црква/Манастир",
    "lat": "41.7218639",
    "lon": "20.8446443"
  },
  {
    "id": "way/268599845",
    "name": "Црква \"Св. Богородица\"",
    "city": "Гостивар",
    "category": "Црква/Манастир",
    "lat": "41.7045076",
    "lon": "20.8443823"
  },
  {
    "id": "way/269914945",
    "name": "Црква Св. Атанасиј",
    "city": "Тетово",
    "category": "Црква/Манастир",
    "lat": "41.966404",
    "lon": "20.9812813"
  },
  {
    "id": "way/270207216",
    "name": "Црква Свети Никола - Геракомија",
    "city": "Охрид",
    "category": "Црква/Манастир",
    "lat": "41.1122949",
    "lon": "20.7947761"
  },
  {
    "id": "way/271750851",
    "name": "Св. Спас",
    "city": "Велес",
    "category": "Црква/Манастир",
    "lat": "41.7069248",
    "lon": "21.789099"
  },
  {
    "id": "way/277527235",
    "name": "Св. Атанасиј",
    "city": "Битола",
    "category": "Црква/Манастир",
    "lat": "41.3804097",
    "lon": "21.4116411"
  },
  {
    "id": "way/299665984",
    "name": "Црква „Св. Атанасиј“",
    "city": "Тетово",
    "category": "Црква/Манастир",
    "lat": "41.9054735",
    "lon": "20.9622874"
  },
  {
    "id": "way/299894835",
    "name": "Црква „Св. Никола“ - Теново",
    "city": "Тетово",
    "category": "Црква/Манастир",
    "lat": "41.8949569",
    "lon": "20.9836971"
  },
  {
    "id": "way/299894872",
    "name": "Црква „Св. Никола“",
    "city": "Тетово",
    "category": "Црква/Манастир",
    "lat": "41.8949945",
    "lon": "20.9839735"
  },
  {
    "id": "way/305673429",
    "name": "Света Богородица Болничка",
    "city": "Охрид",
    "category": "Црква/Манастир",
    "lat": "41.1123109",
    "lon": "20.7972324"
  },
  {
    "id": "way/326502247",
    "name": "Света Троица",
    "city": "Крушево",
    "category": "Црква/Манастир",
    "lat": "41.3944616",
    "lon": "21.3264901"
  },
  {
    "id": "way/326807166",
    "name": "Св. Атанасиј Велики",
    "city": "Прилеп",
    "category": "Црква/Манастир",
    "lat": "41.3664227",
    "lon": "21.3164435"
  },
  {
    "id": "way/327369842",
    "name": "Црква Св. Константин и Елена",
    "city": "Скопје",
    "category": "Црква/Манастир",
    "lat": "41.9934751",
    "lon": "21.4306982"
  },
  {
    "id": "way/334220751",
    "name": "Св. Атанасиј",
    "city": "Прилеп",
    "category": "Црква/Манастир",
    "lat": "41.3594263",
    "lon": "21.532549"
  },
  {
    "id": "way/334220752",
    "name": "Св. Архангел Михаил",
    "city": "Прилеп",
    "category": "Црква/Манастир",
    "lat": "41.3603981",
    "lon": "21.5343815"
  },
  {
    "id": "way/334221236",
    "name": "Св. Богородица",
    "city": "Прилеп",
    "category": "Црква/Манастир",
    "lat": "41.3582456",
    "lon": "21.5342975"
  },
  {
    "id": "way/334221237",
    "name": "Св. Димитрија",
    "city": "Прилеп",
    "category": "Црква/Манастир",
    "lat": "41.3578192",
    "lon": "21.5317377"
  },
  {
    "id": "way/334367008",
    "name": "Св. Недела",
    "city": "Прилеп",
    "category": "Црква/Манастир",
    "lat": "41.4722113",
    "lon": "21.4601343"
  },
  {
    "id": "way/334374287",
    "name": "Св. Георгиј",
    "city": "Прилеп",
    "category": "Црква/Манастир",
    "lat": "41.5013024",
    "lon": "21.4518228"
  },
  {
    "id": "way/334627272",
    "name": "Св. Петар и Павле",
    "city": "Прилеп",
    "category": "Црква/Манастир",
    "lat": "41.3565666",
    "lon": "21.5365779"
  },
  {
    "id": "way/334883424",
    "name": "Св. Петка",
    "city": "Лениште",
    "category": "Црква/Манастир",
    "lat": "41.3588735",
    "lon": "21.6269578"
  },
  {
    "id": "way/337660003",
    "name": "Успение на Пресвета Богородица",
    "city": "Прилеп",
    "category": "Црква/Манастир",
    "lat": "41.5358668",
    "lon": "21.3650184"
  },
  {
    "id": "way/337787674",
    "name": "Св. Троица",
    "city": "Прилеп",
    "category": "Црква/Манастир",
    "lat": "41.4516647",
    "lon": "21.3732901"
  },
  {
    "id": "way/356219819",
    "name": "Св. Георгиј",
    "city": "Преспа",
    "category": "Црква/Манастир",
    "lat": "40.9860455",
    "lon": "21.0850433"
  },
  {
    "id": "way/356302520",
    "name": "Св. Великомаченик Георгиј",
    "city": "Куманово",
    "category": "Црква/Манастир",
    "lat": "42.198478",
    "lon": "21.8283274"
  },
  {
    "id": "way/356304968",
    "name": "Св. Јован Крстител",
    "city": "Гостивар",
    "category": "Црква/Манастир",
    "lat": "41.6212572",
    "lon": "20.6092921"
  },
  {
    "id": "way/359584986",
    "name": "Црква Св. Кирил и Методиј и Св. Бенедикт",
    "city": "Охрид",
    "category": "Црква/Манастир",
    "lat": "41.1110758",
    "lon": "20.8048116"
  },
  {
    "id": "way/359803976",
    "name": "Св. Константин и Елена",
    "city": "Тетово",
    "category": "Црква/Манастир",
    "lat": "42.1326747",
    "lon": "21.1224542"
  },
  {
    "id": "way/375120196",
    "name": "Св. Атанасиј",
    "city": "Гевгелија",
    "category": "Црква/Манастир",
    "lat": "41.3428899",
    "lon": "22.4414488"
  },
  {
    "id": "way/404975011",
    "name": "Црква Св. Атанасиј",
    "city": "Битола",
    "category": "Црква/Манастир",
    "lat": "40.9233256",
    "lon": "21.4576834"
  },
  {
    "id": "way/405710098",
    "name": "Св. Спас",
    "city": "Гевгелија",
    "category": "Црква/Манастир",
    "lat": "41.1390387",
    "lon": "22.5107982"
  },
  {
    "id": "way/406222434",
    "name": "Покров на Пресвета Богородица",
    "city": "Прилеп",
    "category": "Црква/Манастир",
    "lat": "41.322145",
    "lon": "21.5609366"
  },
  {
    "id": "way/407196924",
    "name": "Рождество на Пресвета Богородица",
    "city": "Прилеп",
    "category": "Црква/Манастир",
    "lat": "41.3053504",
    "lon": "21.4576043"
  },
  {
    "id": "way/407549889",
    "name": "Св.Талалеј",
    "city": "Скопје",
    "category": "Црква/Манастир",
    "lat": "42.0252181",
    "lon": "21.5652272"
  },
  {
    "id": "way/412310913",
    "name": "Св. Меркуриј",
    "city": "Битола",
    "category": "Црква/Манастир",
    "lat": "40.9522863",
    "lon": "21.3504051"
  },
  {
    "id": "way/412315742",
    "name": "Св. Димитриј",
    "city": "Битола",
    "category": "Црква/Манастир",
    "lat": "40.9531028",
    "lon": "21.3559622"
  },
  {
    "id": "way/412395714",
    "name": "Св. Никола",
    "city": "Велес",
    "category": "Црква/Манастир",
    "lat": "40.9797665",
    "lon": "21.3555952"
  },
  {
    "id": "way/412800549",
    "name": "Св. Георгиј",
    "city": "Битола",
    "category": "Црква/Манастир",
    "lat": "41.4018546",
    "lon": "21.4307261"
  },
  {
    "id": "way/413914395",
    "name": "Св. Пантелејмон",
    "city": "Прилеп",
    "category": "Црква/Манастир",
    "lat": "41.1364492",
    "lon": "21.8069048"
  },
  {
    "id": "way/416992718",
    "name": "Св. Димитриј",
    "city": "Штип",
    "category": "Црква/Манастир",
    "lat": "41.734396",
    "lon": "22.1810904"
  },
  {
    "id": "way/416992727",
    "name": "Св. Богородица",
    "city": "Штип",
    "category": "Црква/Манастир",
    "lat": "41.7361386",
    "lon": "22.1818877"
  },
  {
    "id": "way/416992742",
    "name": "Св. Спас",
    "city": "Штип",
    "category": "Црква/Манастир",
    "lat": "41.7348212",
    "lon": "22.1847779"
  },
  {
    "id": "way/425934461",
    "name": "Св. Недела",
    "city": "Велес",
    "category": "Црква/Манастир",
    "lat": "41.7029956",
    "lon": "21.7879089"
  },
  {
    "id": "way/428709970",
    "name": "Св. Константин и Елена",
    "city": "Струмица",
    "category": "Црква/Манастир",
    "lat": "41.4162429",
    "lon": "22.7545721"
  },
  {
    "id": "way/428710862",
    "name": "Протестантска црква",
    "city": "Струмица",
    "category": "Црква/Манастир",
    "lat": "41.4165598",
    "lon": "22.7503572"
  },
  {
    "id": "way/428977431",
    "name": "Света Петка",
    "city": "Велес",
    "category": "Црква/Манастир",
    "lat": "41.6307512",
    "lon": "21.489222"
  },
  {
    "id": "way/429475632",
    "name": "Св. Димитрија",
    "city": "Гостивар",
    "category": "Црква/Манастир",
    "lat": "41.7932942",
    "lon": "20.9156915"
  },
  {
    "id": "way/439088377",
    "name": "Св.Никола",
    "city": "Штип",
    "category": "Црква/Манастир",
    "lat": "41.7364711",
    "lon": "22.1887765"
  },
  {
    "id": "way/443063644",
    "name": "Св. Арханѓел",
    "city": "Штип",
    "category": "Црква/Манастир",
    "lat": "41.7390026",
    "lon": "22.1881024"
  },
  {
    "id": "way/445929014",
    "name": "Св. Архангел Михаил",
    "city": "Штип",
    "category": "Црква/Манастир",
    "lat": "41.7381482",
    "lon": "22.1912421"
  },
  {
    "id": "way/453012433",
    "name": "Св. Атанасиј",
    "city": "Тетово",
    "category": "Црква/Манастир",
    "lat": "41.9816896",
    "lon": "21.0389549"
  },
  {
    "id": "way/453012435",
    "name": "Пресвета Богородица",
    "city": "Тетово",
    "category": "Црква/Манастир",
    "lat": "41.980706",
    "lon": "21.0411556"
  },
  {
    "id": "way/476714056",
    "name": "Св. Богородица",
    "city": "Тетово",
    "category": "Црква/Манастир",
    "lat": "42.0120452",
    "lon": "20.9599456"
  },
  {
    "id": "way/476718503",
    "name": "Св. Недела",
    "city": "Тетово",
    "category": "Црква/Манастир",
    "lat": "42.0126248",
    "lon": "20.9620177"
  },
  {
    "id": "way/476718504",
    "name": "Св. Никола",
    "city": "Тетово",
    "category": "Црква/Манастир",
    "lat": "42.0126379",
    "lon": "20.9626181"
  },
  {
    "id": "way/481086680",
    "name": "Св. Благовештение",
    "city": "Прилеп",
    "category": "Црква/Манастир",
    "lat": "41.3433247",
    "lon": "21.557818"
  },
  {
    "id": "way/481402867",
    "name": "Sveto Prepolovenie Rusa Sreda",
    "city": "Скопје",
    "category": "Црква/Манастир",
    "lat": "41.9168502",
    "lon": "21.4954059"
  },
  {
    "id": "way/488242717",
    "name": "св. Софија аеродром",
    "city": "Скопје",
    "category": "Црква/Манастир",
    "lat": "41.9809066",
    "lon": "21.4735645"
  },
  {
    "id": "way/488874782",
    "name": "Црква Свети Никола - Аеродром",
    "city": "Скопје",
    "category": "Црква/Манастир",
    "lat": "41.9837758",
    "lon": "21.471558"
  },
  {
    "id": "way/517915859",
    "name": "Пресвета Богородица Перивлепта",
    "city": "Охрид",
    "category": "Црква/Манастир",
    "lat": "41.1142881",
    "lon": "20.795401"
  },
  {
    "id": "way/533569466",
    "name": "Евангелска Конгрешанска Црква",
    "city": "Скопје",
    "category": "Црква/Манастир",
    "lat": "41.9983971",
    "lon": "21.4148541"
  },
  {
    "id": "way/547594794",
    "name": "Новоапостолска црква",
    "city": "Скопје",
    "category": "Црква/Манастир",
    "lat": "42.0036882",
    "lon": "21.3872555"
  },
  {
    "id": "way/552666312",
    "name": "Рождество на Пресвета Богородица",
    "city": "Струмица",
    "category": "Црква/Манастир",
    "lat": "41.4232793",
    "lon": "22.7649772"
  },
  {
    "id": "way/561537018",
    "name": "Св. Кузман и Дамјан",
    "city": "Прилеп",
    "category": "Црква/Манастир",
    "lat": "41.3703657",
    "lon": "21.6531133"
  },
  {
    "id": "way/585471780",
    "name": "Св. Никола",
    "city": "Преспа",
    "category": "Црква/Манастир",
    "lat": "41.0460429",
    "lon": "21.0064644"
  },
  {
    "id": "way/603605133",
    "name": "Sv.Petka",
    "city": "Делчево",
    "category": "Црква/Манастир",
    "lat": "41.7774923",
    "lon": "22.8624611"
  },
  {
    "id": "way/617132672",
    "name": "Манастир Св. Недела",
    "city": "Струга",
    "category": "Црква/Манастир",
    "lat": "41.2178305",
    "lon": "20.6941689"
  },
  {
    "id": "way/620649950",
    "name": "Св. Архангел Миахил",
    "city": "Прилеп",
    "category": "Црква/Манастир",
    "lat": "41.2919637",
    "lon": "21.625248"
  },
  {
    "id": "way/625505134",
    "name": "Света Богородица Пандонос",
    "city": "Охрид",
    "category": "Црква/Манастир",
    "lat": "41.1151731",
    "lon": "20.7938418"
  },
  {
    "id": "way/626882189",
    "name": "Црква Свети 40 Севастиски Маченици",
    "city": "Охрид",
    "category": "Црква/Манастир",
    "lat": "41.1130973",
    "lon": "20.7941338"
  },
  {
    "id": "way/626884064",
    "name": "Св. Никола Чудотворец",
    "city": "Охрид",
    "category": "Црква/Манастир",
    "lat": "41.1130472",
    "lon": "20.7957989"
  },
  {
    "id": "way/626885547",
    "name": "Св. Богородица Каменска",
    "city": "Охрид",
    "category": "Црква/Манастир",
    "lat": "41.1163477",
    "lon": "20.7991757"
  },
  {
    "id": "way/664905985",
    "name": "Св. Петка",
    "city": "Прилеп",
    "category": "Црква/Манастир",
    "lat": "41.3092751",
    "lon": "21.5149422"
  },
  {
    "id": "way/669910506",
    "name": "Св. Пантелејмон",
    "city": "Велес",
    "category": "Црква/Манастир",
    "lat": "41.7066918",
    "lon": "21.7817735"
  },
  {
    "id": "way/670179174",
    "name": "Св. Кирил и Методиј",
    "city": "Велес",
    "category": "Црква/Манастир",
    "lat": "41.7174161",
    "lon": "21.7741163"
  },
  {
    "id": "way/671215482",
    "name": "Успение на Пресвета Богородица",
    "city": "Велес",
    "category": "Црква/Манастир",
    "lat": "41.711557",
    "lon": "21.7886293"
  },
  {
    "id": "way/677972632",
    "name": "Св.Илија",
    "city": "Штип",
    "category": "Црква/Манастир",
    "lat": "41.735801",
    "lon": "22.1955583"
  },
  {
    "id": "way/685820502",
    "name": "St. Dimitri\u0027s Church",
    "city": "Битола",
    "category": "Црква/Манастир",
    "lat": "40.9487182",
    "lon": "21.5979572"
  },
  {
    "id": "way/692208999",
    "name": "Св. Кирил и Методиј",
    "city": "Преспа",
    "category": "Црква/Манастир",
    "lat": "40.9390241",
    "lon": "20.9113566"
  },
  {
    "id": "way/692925887",
    "name": "Света Великомаченичка Недела",
    "city": "Охрид",
    "category": "Црква/Манастир",
    "lat": "41.0623366",
    "lon": "20.8017484"
  },
  {
    "id": "way/715124995",
    "name": "Манастир Св. Петка с. Бродец",
    "city": "Гостивар",
    "category": "Црква/Манастир",
    "lat": "41.7638744",
    "lon": "20.6722663"
  },
  {
    "id": "way/715175611",
    "name": "Храм Св. Троица",
    "city": "Порече",
    "category": "Црква/Манастир",
    "lat": "41.6748688",
    "lon": "21.3118854"
  },
  {
    "id": "way/770882635",
    "name": "Sv. Bogorodica",
    "city": "Овче Поле",
    "category": "Црква/Манастир",
    "lat": "41.9139555",
    "lon": "22.0132448"
  },
  {
    "id": "way/781153480",
    "name": "Св. Анастасие",
    "city": "Гевгелија",
    "category": "Црква/Манастир",
    "lat": "41.1837145",
    "lon": "22.4791953"
  },
  {
    "id": "way/800541179",
    "name": "Св. Георгиј",
    "city": "Крушево",
    "category": "Црква/Манастир",
    "lat": "41.2745796",
    "lon": "21.292007"
  },
  {
    "id": "way/801945534",
    "name": "Св. Архангел Михаил",
    "city": "Порече",
    "category": "Црква/Манастир",
    "lat": "41.5468492",
    "lon": "21.2500015"
  },
  {
    "id": "way/808424072",
    "name": "Св. Недела",
    "city": "Кичево",
    "category": "Црква/Манастир",
    "lat": "41.4841843",
    "lon": "20.9233197"
  },
  {
    "id": "way/815079621",
    "name": "Св. Спас",
    "city": "Прилеп",
    "category": "Црква/Манастир",
    "lat": "41.3035512",
    "lon": "21.56742"
  },
  {
    "id": "way/816263407",
    "name": "Св. Атанасиј",
    "city": "Лениште",
    "category": "Црква/Манастир",
    "lat": "41.3623637",
    "lon": "21.6194965"
  },
  {
    "id": "way/816588422",
    "name": "Св. Преображение",
    "city": "Прилеп",
    "category": "Црква/Манастир",
    "lat": "41.3437815",
    "lon": "21.5567708"
  },
  {
    "id": "way/816604530",
    "name": "Стара Црква",
    "city": "Прилеп",
    "category": "Црква/Манастир",
    "lat": "41.3438293",
    "lon": "21.5584547"
  },
  {
    "id": "way/816779407",
    "name": "Св. Троица",
    "city": "Кавадарци",
    "category": "Црква/Манастир",
    "lat": "41.5180617",
    "lon": "21.9452729"
  },
  {
    "id": "way/818900504",
    "name": "Манастир Свети Ѓорѓи - Кнежино",
    "city": "Кичево",
    "category": "Црква/Манастир",
    "lat": "41.5163053",
    "lon": "20.9213457"
  },
  {
    "id": "way/818907913",
    "name": "Свети Димитрија",
    "city": "Кичево",
    "category": "Црква/Манастир",
    "lat": "41.5212795",
    "lon": "20.9165336"
  },
  {
    "id": "way/818911597",
    "name": "Св. Архангел Михаил",
    "city": "Кичево",
    "category": "Црква/Манастир",
    "lat": "41.4827921",
    "lon": "20.8673838"
  },
  {
    "id": "way/820126629",
    "name": "Св. Никола",
    "city": "Демир Хисар",
    "category": "Црква/Манастир",
    "lat": "41.2978732",
    "lon": "21.0722187"
  },
  {
    "id": "way/821320763",
    "name": "Св. Атанасиј",
    "city": "Демир Хисар",
    "category": "Црква/Манастир",
    "lat": "41.2828569",
    "lon": "21.0464002"
  },
  {
    "id": "way/821330536",
    "name": "Рождество на Пресвета Богородица",
    "city": "Демир Хисар",
    "category": "Црква/Манастир",
    "lat": "41.2509491",
    "lon": "21.2262288"
  },
  {
    "id": "way/824662518",
    "name": "Св. Богородица - Пречиста Кичевска",
    "city": "Кичево",
    "category": "Црква/Манастир",
    "lat": "41.4592577",
    "lon": "20.9352717"
  },
  {
    "id": "way/825419100",
    "name": "Св. Георгиј",
    "city": "Демир Хисар",
    "category": "Црква/Манастир",
    "lat": "41.3404832",
    "lon": "21.126402"
  },
  {
    "id": "way/827813532",
    "name": "Св. Константин и Св. Елена",
    "city": "Демир Хисар",
    "category": "Црква/Манастир",
    "lat": "41.2348788",
    "lon": "21.2509014"
  },
  {
    "id": "way/832499572",
    "name": "Свети Архангел Михаил",
    "city": "Преспа",
    "category": "Црква/Манастир",
    "lat": "40.9743152",
    "lon": "21.0581285"
  },
  {
    "id": "way/837627786",
    "name": "Балаклија",
    "city": "Демир Хисар",
    "category": "Црква/Манастир",
    "lat": "41.2384573",
    "lon": "21.1505383"
  },
  {
    "id": "way/837634197",
    "name": "Св. Петар",
    "city": "Демир Хисар",
    "category": "Црква/Манастир",
    "lat": "41.170636",
    "lon": "21.1062438"
  },
  {
    "id": "way/837638201",
    "name": "Успение на Пресвета Богородица",
    "city": "Битола",
    "category": "Црква/Манастир",
    "lat": "41.2066003",
    "lon": "21.2451722"
  },
  {
    "id": "way/844112184",
    "name": "Sveta Bogorodica",
    "city": "Дебар",
    "category": "Црква/Манастир",
    "lat": "41.5020203",
    "lon": "20.6833026"
  },
  {
    "id": "way/846009790",
    "name": "Св. Тодор",
    "city": "Битола",
    "category": "Црква/Манастир",
    "lat": "41.2213216",
    "lon": "21.3292307"
  },
  {
    "id": "way/846935349",
    "name": "Св. Илија",
    "city": "Битола",
    "category": "Црква/Манастир",
    "lat": "41.0691223",
    "lon": "21.3172068"
  },
  {
    "id": "way/848609722",
    "name": "Св. Архангел Михаил",
    "city": "Битола",
    "category": "Црква/Манастир",
    "lat": "41.148419",
    "lon": "21.3217724"
  },
  {
    "id": "way/849430895",
    "name": "Св. Ана",
    "city": "Битола",
    "category": "Црква/Манастир",
    "lat": "40.9639332",
    "lon": "21.3494482"
  },
  {
    "id": "way/849430896",
    "name": "Св. Петка",
    "city": "Битола",
    "category": "Црква/Манастир",
    "lat": "40.9634737",
    "lon": "21.3490314"
  },
  {
    "id": "way/849430897",
    "name": "Св. Атанасиј Велики",
    "city": "Битола",
    "category": "Црква/Манастир",
    "lat": "40.9631686",
    "lon": "21.3494834"
  },
  {
    "id": "way/851812276",
    "name": "Св. Варнава",
    "city": "Кратово",
    "category": "Црква/Манастир",
    "lat": "41.3471357",
    "lon": "20.5975296"
  },
  {
    "id": "way/853112086",
    "name": "Св. Атанасиј",
    "city": "Скопје",
    "category": "Црква/Манастир",
    "lat": "41.956025",
    "lon": "21.4560926"
  },
  {
    "id": "way/853541376",
    "name": "Св. Димитриј Солунски",
    "city": "Струга",
    "category": "Црква/Манастир",
    "lat": "41.3290977",
    "lon": "20.6007111"
  },
  {
    "id": "way/858653355",
    "name": "Св. Наум Охридски",
    "city": "Прилеп",
    "category": "Црква/Манастир",
    "lat": "41.3371258",
    "lon": "21.5548531"
  },
  {
    "id": "way/875859711",
    "name": "Св. Петар и Св. Павле",
    "city": "Прилеп",
    "category": "Црква/Манастир",
    "lat": "41.5211051",
    "lon": "21.3414232"
  },
  {
    "id": "way/878683351",
    "name": "Св. Атанасиј",
    "city": "Преспа",
    "category": "Црква/Манастир",
    "lat": "40.9342642",
    "lon": "21.1208241"
  },
  {
    "id": "way/878684024",
    "name": "Св. Димитриј Солунски",
    "city": "Преспа",
    "category": "Црква/Манастир",
    "lat": "40.9328698",
    "lon": "21.1191269"
  },
  {
    "id": "way/878685767",
    "name": "Успение на Пресвета Богородица",
    "city": "Преспа",
    "category": "Црква/Манастир",
    "lat": "41.1106907",
    "lon": "21.0021113"
  },
  {
    "id": "way/878685768",
    "name": "Св. Игнатиј Богоносец",
    "city": "Преспа",
    "category": "Црква/Манастир",
    "lat": "41.1108408",
    "lon": "21.0022209"
  },
  {
    "id": "way/878692330",
    "name": "Св. Илија",
    "city": "Преспа",
    "category": "Црква/Манастир",
    "lat": "41.0111869",
    "lon": "21.0809995"
  },
  {
    "id": "way/878697004",
    "name": "Св. Недела",
    "city": "Преспа",
    "category": "Црква/Манастир",
    "lat": "41.0554018",
    "lon": "20.9615661"
  },
  {
    "id": "way/878701112",
    "name": "Св. Петка",
    "city": "Гевгелија",
    "category": "Црква/Манастир",
    "lat": "41.0373204",
    "lon": "21.0743396"
  },
  {
    "id": "way/878701119",
    "name": "Св. Петар и Св. Павле",
    "city": "Преспа",
    "category": "Црква/Манастир",
    "lat": "41.0298397",
    "lon": "21.0546688"
  },
  {
    "id": "way/878959157",
    "name": "Св. Јован Крстител",
    "city": "Преспа",
    "category": "Црква/Манастир",
    "lat": "41.009273",
    "lon": "21.0103307"
  },
  {
    "id": "way/885241548",
    "name": "Св. Никола",
    "city": "Кавадарци",
    "category": "Црква/Манастир",
    "lat": "41.3852233",
    "lon": "22.037015"
  },
  {
    "id": "way/888423769",
    "name": "Saint Varvara",
    "city": "Охрид",
    "category": "Црква/Манастир",
    "lat": "41.1136648",
    "lon": "20.7938384"
  },
  {
    "id": "way/890955937",
    "name": "Св. Троица",
    "city": "Скопје",
    "category": "Црква/Манастир",
    "lat": "41.9576983",
    "lon": "21.5402377"
  },
  {
    "id": "way/892856574",
    "name": "Св. Димитриј Солунски",
    "city": "Велес",
    "category": "Црква/Манастир",
    "lat": "41.1656733",
    "lon": "21.787384"
  },
  {
    "id": "way/899112204",
    "name": "Св. Димитириј Солунски",
    "city": "Прилеп",
    "category": "Црква/Манастир",
    "lat": "41.33659",
    "lon": "21.7760619"
  },
  {
    "id": "way/899253824",
    "name": "Св. Кирил и Методиј",
    "city": "Прилеп",
    "category": "Црква/Манастир",
    "lat": "41.3466633",
    "lon": "21.5491294"
  },
  {
    "id": "way/899318995",
    "name": "Воскресение Христово",
    "city": "Прилеп",
    "category": "Црква/Манастир",
    "lat": "41.2958797",
    "lon": "21.4984804"
  },
  {
    "id": "way/899449836",
    "name": "Св. Никола",
    "city": "Битола",
    "category": "Црква/Манастир",
    "lat": "41.1796264",
    "lon": "21.5957248"
  },
  {
    "id": "way/899453097",
    "name": "Рождение на Пресвета Богородица",
    "city": "Прилеп",
    "category": "Црква/Манастир",
    "lat": "41.2328592",
    "lon": "21.5505658"
  },
  {
    "id": "way/899473766",
    "name": "Св. Никола",
    "city": "Неготино",
    "category": "Црква/Манастир",
    "lat": "41.3274274",
    "lon": "21.7852008"
  },
  {
    "id": "way/899474892",
    "name": "Св. Илија",
    "city": "Неготино",
    "category": "Црква/Манастир",
    "lat": "41.3228773",
    "lon": "21.7801235"
  },
  {
    "id": "way/899622219",
    "name": "Св. Параскева",
    "city": "Прилеп",
    "category": "Црква/Манастир",
    "lat": "41.1384943",
    "lon": "21.7834457"
  },
  {
    "id": "way/899627675",
    "name": "Св. Јован",
    "city": "Прилеп",
    "category": "Црква/Манастир",
    "lat": "41.2276483",
    "lon": "21.5950165"
  },
  {
    "id": "way/899627676",
    "name": "Св. Јован Богослов",
    "city": "Прилеп",
    "category": "Црква/Манастир",
    "lat": "41.2264999",
    "lon": "21.597495"
  },
  {
    "id": "way/899632719",
    "name": "Св. Илија",
    "city": "Велес",
    "category": "Црква/Манастир",
    "lat": "41.1637547",
    "lon": "21.7812116"
  },
  {
    "id": "way/899641937",
    "name": "Св. Харалампиј",
    "city": "Прилеп",
    "category": "Црква/Манастир",
    "lat": "41.1774159",
    "lon": "21.825362"
  },
  {
    "id": "way/899652458",
    "name": "Св. Никола",
    "city": "Прилеп",
    "category": "Црква/Манастир",
    "lat": "41.3931514",
    "lon": "21.563954"
  },
  {
    "id": "way/905616889",
    "name": "Св. Атанасиј",
    "city": "Крушево",
    "category": "Црква/Манастир",
    "lat": "41.4043406",
    "lon": "21.2934539"
  },
  {
    "id": "way/905876266",
    "name": "Св. Спас",
    "city": "Струга",
    "category": "Црква/Манастир",
    "lat": "41.3649933",
    "lon": "20.649378"
  },
  {
    "id": "way/905876267",
    "name": "Св. Петка",
    "city": "Струга",
    "category": "Црква/Манастир",
    "lat": "41.3627536",
    "lon": "20.6466677"
  },
  {
    "id": "way/906807150",
    "name": "Св. Петар",
    "city": "Битола",
    "category": "Црква/Манастир",
    "lat": "40.9307272",
    "lon": "21.7860107"
  },
  {
    "id": "way/908868129",
    "name": "Св. Спас",
    "city": "Тетово",
    "category": "Црква/Манастир",
    "lat": "42.1577882",
    "lon": "21.1616835"
  },
  {
    "id": "way/908868131",
    "name": "Св. Илија",
    "city": "Тетово",
    "category": "Црква/Манастир",
    "lat": "42.1624234",
    "lon": "21.1576515"
  },
  {
    "id": "way/908868133",
    "name": "Св. Архангел Михаил",
    "city": "Тетово",
    "category": "Црква/Манастир",
    "lat": "42.1583605",
    "lon": "21.1553135"
  },
  {
    "id": "way/908868134",
    "name": "Св. Петка и Св. Недела",
    "city": "Тетово",
    "category": "Црква/Манастир",
    "lat": "42.159815",
    "lon": "21.1592022"
  },
  {
    "id": "way/909263961",
    "name": "Св. Петка",
    "city": "Тетово",
    "category": "Црква/Манастир",
    "lat": "42.1483664",
    "lon": "21.121456"
  },
  {
    "id": "way/922282960",
    "name": "Св. Петка",
    "city": "Скопје",
    "category": "Црква/Манастир",
    "lat": "41.9810723",
    "lon": "21.4689785"
  },
  {
    "id": "way/929187735",
    "name": "Пресвета Богородица",
    "city": "Прилеп",
    "category": "Црква/Манастир",
    "lat": "41.4656453",
    "lon": "21.398952"
  },
  {
    "id": "way/930966104",
    "name": "Црква Св. Варвара",
    "city": "Струга",
    "category": "Црква/Манастир",
    "lat": "41.2471743",
    "lon": "20.5941604"
  },
  {
    "id": "way/930966130",
    "name": "Св. Георгиј",
    "city": "Струга",
    "category": "Црква/Манастир",
    "lat": "41.252058",
    "lon": "20.6355416"
  },
  {
    "id": "way/935876851",
    "name": "Св. Василиј",
    "city": "Кочани",
    "category": "Црква/Манастир",
    "lat": "42.0404227",
    "lon": "22.3522117"
  },
  {
    "id": "way/953826670",
    "name": "Свети Климент",
    "city": "Охрид",
    "category": "Црква/Манастир",
    "lat": "41.1126207",
    "lon": "20.7968158"
  },
  {
    "id": "way/961554015",
    "name": "Капела - Св. Димитриј",
    "city": "Битола",
    "category": "Црква/Манастир",
    "lat": "41.0296829",
    "lon": "21.3333013"
  },
  {
    "id": "way/961560037",
    "name": "Собор на Сите Македонски Светители",
    "city": "Битола",
    "category": "Црква/Манастир",
    "lat": "41.0263727",
    "lon": "21.3139956"
  },
  {
    "id": "way/961568440",
    "name": "Св. Петар и Св. Павле / Собор на Светите Апостоли",
    "city": "Битола",
    "category": "Црква/Манастир",
    "lat": "41.0130915",
    "lon": "21.3434531"
  },
  {
    "id": "way/961569547",
    "name": "Св. Пантелејмон",
    "city": "Битола",
    "category": "Црква/Манастир",
    "lat": "41.0208863",
    "lon": "21.324734"
  },
  {
    "id": "way/981839456",
    "name": "Св. Атанасиј Велики",
    "city": "Тетово",
    "category": "Црква/Манастир",
    "lat": "42.066902",
    "lon": "21.0280654"
  },
  {
    "id": "way/986726774",
    "name": "Ајат",
    "city": "Порече",
    "category": "Црква/Манастир",
    "lat": "41.5618319",
    "lon": "21.1904906"
  },
  {
    "id": "way/991653424",
    "name": "Св. Петар и Павле",
    "city": "Кичево",
    "category": "Црква/Манастир",
    "lat": "41.5115602",
    "lon": "20.9633609"
  },
  {
    "id": "way/1003412616",
    "name": "Sveti Nikola Bolnički",
    "city": "Охрид",
    "category": "Црква/Манастир",
    "lat": "41.1121587",
    "lon": "20.7974437"
  },
  {
    "id": "way/1010776749",
    "name": "Црква „Св. Апостоли Петар и Павле“",
    "city": "Скопје",
    "category": "Црква/Манастир",
    "lat": "41.964528",
    "lon": "21.4934686"
  },
  {
    "id": "way/1041564193",
    "name": "Манастир Св. Арханѓел Гаврил",
    "city": "Скопје",
    "category": "Црква/Манастир",
    "lat": "41.8849904",
    "lon": "21.5836619"
  },
  {
    "id": "way/1044716335",
    "name": "Св. Никола",
    "city": "Крушево",
    "category": "Црква/Манастир",
    "lat": "41.3935703",
    "lon": "21.3736408"
  },
  {
    "id": "way/1047511359",
    "name": "Пресвета Богородица",
    "city": "Прилеп",
    "category": "Црква/Манастир",
    "lat": "41.4172438",
    "lon": "21.5332994"
  },
  {
    "id": "way/1054257669",
    "name": "Св. Атанасиј Велики",
    "city": "Крушево",
    "category": "Црква/Манастир",
    "lat": "41.4648106",
    "lon": "21.2938385"
  },
  {
    "id": "way/1054395723",
    "name": "Св. Троица",
    "city": "Крушево",
    "category": "Црква/Манастир",
    "lat": "41.3992043",
    "lon": "21.3096079"
  },
  {
    "id": "way/1056108819",
    "name": "Воведение на Пресвета Богородица",
    "city": "Прилеп",
    "category": "Црква/Манастир",
    "lat": "41.4141295",
    "lon": "21.3601101"
  },
  {
    "id": "way/1070850326",
    "name": "Пресвето Срце Исусово",
    "city": "Битола",
    "category": "Црква/Манастир",
    "lat": "41.0287839",
    "lon": "21.3360815"
  },
  {
    "id": "way/1074008427",
    "name": "Храм Свети Климент Охридски и Света Петка",
    "city": "Штип",
    "category": "Црква/Манастир",
    "lat": "41.7471137",
    "lon": "22.197736"
  },
  {
    "id": "way/1079713826",
    "name": "Црква Св. Никола Летен",
    "city": "Гостивар",
    "category": "Црква/Манастир",
    "lat": "41.6601617",
    "lon": "20.73562"
  },
  {
    "id": "way/1099495460",
    "name": "Успение на Пресвета Богородица",
    "city": "Крушево",
    "category": "Црква/Манастир",
    "lat": "41.3347409",
    "lon": "21.2937247"
  },
  {
    "id": "way/1104457234",
    "name": "Св. Петка",
    "city": "Кавадарци",
    "category": "Црква/Манастир",
    "lat": "41.4429947",
    "lon": "22.0081586"
  },
  {
    "id": "way/1105065787",
    "name": "Св. Кирил и Методиј",
    "city": "Гевгелија",
    "category": "Црква/Манастир",
    "lat": "41.1390586",
    "lon": "22.504418"
  },
  {
    "id": "way/1106159705",
    "name": "Црква „Христос Спасител“",
    "city": "Скопје",
    "category": "Црква/Манастир",
    "lat": "42.0072408",
    "lon": "21.39159"
  },
  {
    "id": "way/1107385187",
    "name": "Св. Атанасиј Велики",
    "city": "Неготино",
    "category": "Црква/Манастир",
    "lat": "41.487816",
    "lon": "22.0934393"
  },
  {
    "id": "way/1107965431",
    "name": "Св. Јован Крстител",
    "city": "Велес",
    "category": "Црква/Манастир",
    "lat": "41.7104259",
    "lon": "21.7627549"
  },
  {
    "id": "way/1111874740",
    "name": "Св. Димитриј",
    "city": "Кавадарци",
    "category": "Црква/Манастир",
    "lat": "41.4346636",
    "lon": "22.0083623"
  },
  {
    "id": "way/1112331820",
    "name": "Св. Три Светители",
    "city": "Скопје",
    "category": "Црква/Манастир",
    "lat": "41.9900936",
    "lon": "21.4469079"
  },
  {
    "id": "way/1112336213",
    "name": "Православна црква „Света Троица“",
    "city": "Скопје",
    "category": "Црква/Манастир",
    "lat": "41.9921505",
    "lon": "21.4642064"
  },
  {
    "id": "way/1112340724",
    "name": "Св. Архангел Гаврил",
    "city": "Скопје",
    "category": "Црква/Манастир",
    "lat": "42.0068303",
    "lon": "21.5076713"
  },
  {
    "id": "way/1113420643",
    "name": "Св. Петка",
    "city": "Велес",
    "category": "Црква/Манастир",
    "lat": "41.7008351",
    "lon": "21.791359"
  },
  {
    "id": "way/1116910799",
    "name": "Св. Константин и Св. Елена",
    "city": "Битола",
    "category": "Црква/Манастир",
    "lat": "41.0259886",
    "lon": "21.3320098"
  },
  {
    "id": "way/1116910801",
    "name": "Св. Наум Охридски",
    "city": "Битола",
    "category": "Црква/Манастир",
    "lat": "41.028439",
    "lon": "21.3388996"
  },
  {
    "id": "way/1116910804",
    "name": "Св. 40. Севастиски маченици",
    "city": "Битола",
    "category": "Црква/Манастир",
    "lat": "41.03999",
    "lon": "21.3352787"
  },
  {
    "id": "way/1116910805",
    "name": "Св. Злата Мегленска",
    "city": "Битола",
    "category": "Црква/Манастир",
    "lat": "41.0366705",
    "lon": "21.3521595"
  },
  {
    "id": "way/1119188022",
    "name": "Св. Георгиј Победоносец",
    "city": "Дебар",
    "category": "Црква/Манастир",
    "lat": "41.5147494",
    "lon": "20.548813"
  },
  {
    "id": "way/1120178041",
    "name": "Св. Петка",
    "city": "Преспа",
    "category": "Црква/Манастир",
    "lat": "40.9051605",
    "lon": "21.1681105"
  },
  {
    "id": "way/1128028419",
    "name": "Св. Георгиј",
    "city": "Кичево",
    "category": "Црква/Манастир",
    "lat": "41.5311155",
    "lon": "20.9900667"
  },
  {
    "id": "way/1128459982",
    "name": "Св. Кирил и Методиј",
    "city": "Струмица",
    "category": "Црква/Манастир",
    "lat": "41.4343967",
    "lon": "22.6356179"
  },
  {
    "id": "way/1132275180",
    "name": "Св. Јован Крстител",
    "city": "Битола",
    "category": "Црква/Манастир",
    "lat": "41.1554012",
    "lon": "21.3466227"
  },
  {
    "id": "way/1134050910",
    "name": "Св. Архангел Гаврил",
    "city": "Битола",
    "category": "Црква/Манастир",
    "lat": "41.0357986",
    "lon": "21.3025648"
  },
  {
    "id": "way/1134050932",
    "name": "Св. Александар Солунски",
    "city": "Битола",
    "category": "Црква/Манастир",
    "lat": "41.0487394",
    "lon": "21.3559513"
  },
  {
    "id": "way/1134050938",
    "name": "Св. Лидија Македонска",
    "city": "Битола",
    "category": "Црква/Манастир",
    "lat": "41.0259348",
    "lon": "21.3143028"
  },
  {
    "id": "way/1135929808",
    "name": "Црква Св. Теодор Тирон",
    "city": "Тетово",
    "category": "Црква/Манастир",
    "lat": "42.0514058",
    "lon": "21.1147007"
  },
  {
    "id": "way/1136815827",
    "name": "Св. Кирил и Методиј",
    "city": "Битола",
    "category": "Црква/Манастир",
    "lat": "41.2018449",
    "lon": "21.400401"
  },
  {
    "id": "way/1137649645",
    "name": "Св. Никола",
    "city": "Скопје",
    "category": "Црква/Манастир",
    "lat": "42.0220621",
    "lon": "21.4402421"
  },
  {
    "id": "way/1137649646",
    "name": "Св. Константин и Елена",
    "city": "Скопје",
    "category": "Црква/Манастир",
    "lat": "42.014885",
    "lon": "21.4508171"
  },
  {
    "id": "way/1147134310",
    "name": "Успение на Пресвета Богородица",
    "city": "Гевгелија",
    "category": "Црква/Манастир",
    "lat": "41.1968715",
    "lon": "22.534105"
  },
  {
    "id": "way/1156168612",
    "name": "Света Троица",
    "city": "Битола",
    "category": "Црква/Манастир",
    "lat": "41.0254845",
    "lon": "21.3414347"
  },
  {
    "id": "way/1212048120",
    "name": "Црква „Преображение“",
    "city": "Кочани",
    "category": "Црква/Манастир",
    "lat": "41.9148299",
    "lon": "22.4254414"
  },
  {
    "id": "way/511203156",
    "name": "Бела Црква - Воѓани",
    "city": "Прилеп",
    "category": "Црква/Манастир",
    "lat": "41.2796256",
    "lon": "21.3385313"
  },
  {
    "id": "way/327124378",
    "name": "Бела Црква - Бучин",
    "city": "Прилеп",
    "category": "Црква/Манастир",
    "lat": "41.2751071",
    "lon": "21.3358563"
  },
  {
    "id": "way/511156347",
    "name": "Бела Црква - Обршани",
    "city": "Прилеп",
    "category": "Црква/Манастир",
    "lat": "41.2806414",
    "lon": "21.3564464"
  },
  {
    "id": "node/470409981",
    "name": "Манастир Св. Ѓорѓија",
    "city": "Скопје",
    "category": "Црква/Манастир",
    "lat": "42.0690911",
    "lon": "21.3001786"
  },
  {
    "id": "node/1804963753",
    "name": "Црква Света Петка",
    "city": "Охрид",
    "category": "Црква/Манастир",
    "lat": "40.9131005",
    "lon": "20.7415162"
  },
  {
    "id": "node/1810969277",
    "name": "Црква Св. Ѓoрѓијa",
    "city": "Охрид",
    "category": "Црква/Манастир",
    "lat": "41.1175675",
    "lon": "20.813755"
  },
  {
    "id": "node/1864402613",
    "name": "Св. Илија",
    "city": "Скопје",
    "category": "Црква/Манастир",
    "lat": "42.0604971",
    "lon": "21.2958493"
  },
  {
    "id": "node/2614780833",
    "name": "Горна Бела Црква",
    "city": "Преспа",
    "category": "Црква/Манастир",
    "lat": "41.0527876",
    "lon": "21.0271686"
  },
  {
    "id": "node/2670727638",
    "name": "Католичка црква",
    "city": "Струмица",
    "category": "Црква/Манастир",
    "lat": "41.4350382",
    "lon": "22.6401158"
  },
  {
    "id": "node/2884502204",
    "name": "Црква „Рождество на Пресвета Богородица“ - Ново Лисиче",
    "city": "Скопје",
    "category": "Црква/Манастир",
    "lat": "41.9858681",
    "lon": "21.4684081"
  },
  {
    "id": "node/2884502205",
    "name": "Црква „Св. Великомаченик Георгиј“",
    "city": "Скопје",
    "category": "Црква/Манастир",
    "lat": "41.9783403",
    "lon": "21.496101"
  },
  {
    "id": "node/2933604200",
    "name": "Црква св.Јован Крстител",
    "city": "Виница",
    "category": "Црква/Манастир",
    "lat": "41.8672643",
    "lon": "22.481858"
  },
  {
    "id": "node/3011061689",
    "name": "Sv. Mina",
    "city": "Преспа",
    "category": "Црква/Манастир",
    "lat": "41.052788",
    "lon": "20.8128079"
  },
  {
    "id": "node/3039868345",
    "name": "Црква „Св. Недела“ - Теново",
    "city": "Тетово",
    "category": "Црква/Манастир",
    "lat": "41.8829405",
    "lon": "20.9917833"
  },
  {
    "id": "node/3668592669",
    "name": "Црква „Рождество на Пресвета Богородица“",
    "city": "Скопје",
    "category": "Црква/Манастир",
    "lat": "41.9769543",
    "lon": "21.408415"
  },
  {
    "id": "node/3687056616",
    "name": "Црква Св. Николе",
    "city": "Гостивар",
    "category": "Црква/Манастир",
    "lat": "41.6645167",
    "lon": "20.7334014"
  },
  {
    "id": "node/4551996521",
    "name": "Ss. Cyril and Methodius – Црква Св.Кирил и Методиј",
    "city": "Гостивар",
    "category": "Црква/Манастир",
    "lat": "41.7031608",
    "lon": "20.7595909"
  },
  {
    "id": "node/5469804185",
    "name": "Црква „Свети Илија„",
    "city": "Охрид",
    "category": "Црква/Манастир",
    "lat": "41.1827523",
    "lon": "20.7990502"
  },
  {
    "id": "node/5469827562",
    "name": "Црква „Свети Спас“",
    "city": "Охрид",
    "category": "Црква/Манастир",
    "lat": "41.1817025",
    "lon": "20.7932588"
  },
  {
    "id": "node/6690599185",
    "name": "Црква св. Jован",
    "city": "Крива Паланка",
    "category": "Црква/Манастир",
    "lat": "42.2903563",
    "lon": "22.0423694"
  },
  {
    "id": "node/6875520386",
    "name": "Евангелско Методистичка Црква",
    "city": "Струмица",
    "category": "Црква/Манастир",
    "lat": "41.4373198",
    "lon": "22.6353267"
  },
  {
    "id": "node/7197164278",
    "name": "Црква Пресвета Богородица",
    "city": "Скопје",
    "category": "Црква/Манастир",
    "lat": "41.9963028",
    "lon": "21.4405383"
  },
  {
    "id": "node/8951302848",
    "name": "Црква Рождество на Пресвета Богородица и Света Петка",
    "city": "Охрид",
    "category": "Црква/Манастир",
    "lat": "41.1110018",
    "lon": "20.7889594"
  },
  {
    "id": "node/9120699958",
    "name": "Црква Св. Петка",
    "city": "Порече",
    "category": "Црква/Манастир",
    "lat": "41.5618318",
    "lon": "21.1908022"
  },
  {
    "id": "node/10188836793",
    "name": "Црква Св. Никол",
    "city": "Гостивар",
    "category": "Црква/Манастир",
    "lat": "41.6936732",
    "lon": "20.723677"
  },
  {
    "id": "node/10641977086",
    "name": "Црква",
    "city": "Прилеп",
    "category": "Црква/Манастир",
    "lat": "41.3094886",
    "lon": "21.5148524"
  },
  {
    "id": "relation/5360062",
    "name": "Куршумли-ан",
    "city": "Скопје",
    "category": "Музеј/Галерија",
    "lat": "42.0032939",
    "lon": "21.4367598"
  },
  {
    "id": "relation/12600424",
    "name": "Насока: Островска кон Музеј на Современа Уметност",
    "city": "Скопје",
    "category": "Музеј/Галерија",
    "lat": "42.0044271",
    "lon": "21.4332323"
  },
  {
    "id": "relation/12601354",
    "name": "Насока: Музеј на Современа Уметност кон Островска",
    "city": "Скопје",
    "category": "Музеј/Галерија",
    "lat": "42.002008",
    "lon": "21.4345527"
  },
  {
    "id": "way/32812963",
    "name": "Музеј на Македонија",
    "city": "Скопје",
    "category": "Музеј/Галерија",
    "lat": "42.003194",
    "lon": "21.4363088"
  },
  {
    "id": "way/32887087",
    "name": "Музеј на современата уметност",
    "city": "Скопје",
    "category": "Музеј/Галерија",
    "lat": "42.0043142",
    "lon": "21.4325172"
  },
  {
    "id": "way/38580676",
    "name": "Магаза",
    "city": "Битола",
    "category": "Музеј/Галерија",
    "lat": "41.0299956",
    "lon": "21.3350427"
  },
  {
    "id": "way/150596710",
    "name": "Спомен Костурница",
    "city": "Велес",
    "category": "Музеј/Галерија",
    "lat": "41.7232436",
    "lon": "21.7892333"
  },
  {
    "id": "way/172171547",
    "name": "Национална галерија „Даут-пашин амам“",
    "city": "Скопје",
    "category": "Музеј/Галерија",
    "lat": "41.998911",
    "lon": "21.4355586"
  },
  {
    "id": "way/172180530",
    "name": "Музеј на македонската борба",
    "city": "Скопје",
    "category": "Музеј/Галерија",
    "lat": "41.9982848",
    "lon": "21.4329425"
  },
  {
    "id": "way/172186249",
    "name": "Меморијален центар на холокаустот на Евреите од Македонија",
    "city": "Скопје",
    "category": "Музеј/Галерија",
    "lat": "41.9984101",
    "lon": "21.4331205"
  },
  {
    "id": "way/176040285",
    "name": "Музеј на Град Скопје",
    "city": "Скопје",
    "category": "Музеј/Галерија",
    "lat": "41.9912181",
    "lon": "21.4288883"
  },
  {
    "id": "way/176051871",
    "name": "Спомен куќа на Мајка Тереза",
    "city": "Скопје",
    "category": "Музеј/Галерија",
    "lat": "41.9939282",
    "lon": "21.4307694"
  },
  {
    "id": "way/180363121",
    "name": "Национална галерија на Македонија „Чифте-амам“",
    "city": "Скопје",
    "category": "Музеј/Галерија",
    "lat": "42.0014097",
    "lon": "21.4373979"
  },
  {
    "id": "way/208711817",
    "name": "11 Октомври 1941",
    "city": "Прилеп",
    "category": "Музеј/Галерија",
    "lat": "41.34503",
    "lon": "21.5522424"
  },
  {
    "id": "way/217931793",
    "name": "Залив на Коските",
    "city": "Охрид",
    "category": "Музеј/Галерија",
    "lat": "40.9946609",
    "lon": "20.7979124"
  },
  {
    "id": "way/229930502",
    "name": "Археолошки музеј на Македонија",
    "city": "Скопје",
    "category": "Музеј/Галерија",
    "lat": "41.9970517",
    "lon": "21.4340186"
  },
  {
    "id": "way/244812164",
    "name": "Ел Калем",
    "city": "Скопје",
    "category": "Музеј/Галерија",
    "lat": "41.987037",
    "lon": "21.287509"
  },
  {
    "id": "way/439347125",
    "name": "Музеј Штип",
    "city": "Штип",
    "category": "Музеј/Галерија",
    "lat": "41.736621",
    "lon": "22.1894327"
  },
  {
    "id": "way/443072144",
    "name": "Безистен Штип",
    "city": "Штип",
    "category": "Музеј/Галерија",
    "lat": "41.7375614",
    "lon": "22.1924737"
  },
  {
    "id": "way/445672540",
    "name": "Бегов амам",
    "city": "Тетово",
    "category": "Музеј/Галерија",
    "lat": "42.0061214",
    "lon": "20.967434"
  },
  {
    "id": "way/816604528",
    "name": "Музеј на икони",
    "city": "Прилеп",
    "category": "Музеј/Галерија",
    "lat": "41.344021",
    "lon": "21.5588366"
  },
  {
    "id": "way/834714782",
    "name": "Muzeu \"Dëshmorët e kombit\"",
    "city": "Куманово",
    "category": "Музеј/Галерија",
    "lat": "42.1794755",
    "lon": "21.6202074"
  },
  {
    "id": "way/849621044",
    "name": "Ловен Дом",
    "city": "Кочани",
    "category": "Музеј/Галерија",
    "lat": "41.9150435",
    "lon": "22.4138306"
  },
  {
    "id": "way/905876263",
    "name": "1. Бригада",
    "city": "Струга",
    "category": "Музеј/Галерија",
    "lat": "41.3660204",
    "lon": "20.6485817"
  },
  {
    "id": "way/1054395729",
    "name": "Спомен-дом Блаже Конески",
    "city": "Прилеп",
    "category": "Музеј/Галерија",
    "lat": "41.4493541",
    "lon": "21.5583418"
  },
  {
    "id": "way/1143766963",
    "name": "Музеј на Битола",
    "city": "Битола",
    "category": "Музеј/Галерија",
    "lat": "41.0234533",
    "lon": "21.3359067"
  },
  {
    "id": "way/1143774305",
    "name": "Меморијален музеј Народен херој Кузман Јосифоски-Питу",
    "city": "Прилеп",
    "category": "Музеј/Галерија",
    "lat": "41.3424673",
    "lon": "21.5597305"
  },
  {
    "id": "way/1144895703",
    "name": "Музеј",
    "city": "Прилеп",
    "category": "Музеј/Галерија",
    "lat": "41.3429261",
    "lon": "21.5591038"
  },
  {
    "id": "way/1152990867",
    "name": "Goce Delchev Memorial House",
    "city": "Битола",
    "category": "Музеј/Галерија",
    "lat": "41.0268197",
    "lon": "21.3320703"
  },
  {
    "id": "way/1217195019",
    "name": "Mémorial de Bitola",
    "city": "Битола",
    "category": "Музеј/Галерија",
    "lat": "41.0410392",
    "lon": "21.3585444"
  },
  {
    "id": "node/172348137",
    "name": "Природонаучен Музеј",
    "city": "Скопје",
    "category": "Музеј/Галерија",
    "lat": "42.005709",
    "lon": "21.4174425"
  },
  {
    "id": "node/529811458",
    "name": "Музеј Галерија Кавадарци",
    "city": "Кавадарци",
    "category": "Музеј/Галерија",
    "lat": "41.4343634",
    "lon": "22.0163228"
  },
  {
    "id": "node/534925163",
    "name": "Куќа на Робевци",
    "city": "Охрид",
    "category": "Музеј/Галерија",
    "lat": "41.112361",
    "lon": "20.7961416"
  },
  {
    "id": "node/4180539742",
    "name": "Галерија на икони",
    "city": "Охрид",
    "category": "Музеј/Галерија",
    "lat": "41.1143378",
    "lon": "20.7952385"
  },
  {
    "id": "node/4425404367",
    "name": "Станица “Музеј“",
    "city": "Штип",
    "category": "Музеј/Галерија",
    "lat": "41.7365081",
    "lon": "22.1909377"
  },
  {
    "id": "node/5009024422",
    "name": "НУ Завод за заштита на спомениците на културата и Музеј-Охрид",
    "city": "Охрид",
    "category": "Музеј/Галерија",
    "lat": "41.1131718",
    "lon": "20.7945858"
  },
  {
    "id": "node/5699016423",
    "name": "Eтнолошки музеј",
    "city": "Преспа",
    "category": "Музеј/Галерија",
    "lat": "41.0240503",
    "lon": "21.0506131"
  },
  {
    "id": "node/5833918548",
    "name": "Museum of Galichnik\u0027s cultural heritage",
    "city": "Гостивар",
    "category": "Музеј/Галерија",
    "lat": "41.5939237",
    "lon": "20.652723"
  },
  {
    "id": "node/7102244287",
    "name": "Galerija RA",
    "city": "Скопје",
    "category": "Музеј/Галерија",
    "lat": "41.9989569",
    "lon": "21.3865879"
  },
  {
    "id": "node/8643084324",
    "name": "Музеј на Современа Уметност Т",
    "city": "Скопје",
    "category": "Музеј/Галерија",
    "lat": "42.0040991",
    "lon": "21.4338483"
  },
  {
    "id": "node/9241877277",
    "name": "Museum Strumica",
    "city": "Струмица",
    "category": "Музеј/Галерија",
    "lat": "41.4354106",
    "lon": "22.6364291"
  },
  {
    "id": "node/9241915460",
    "name": "Vardarski Rid",
    "city": "Гевгелија",
    "category": "Музеј/Галерија",
    "lat": "41.1488082",
    "lon": "22.5220207"
  },
  {
    "id": "node/9945894317",
    "name": "House of Lambeski",
    "city": "Охрид",
    "category": "Музеј/Галерија",
    "lat": "41.1123275",
    "lon": "20.7970433"
  },
  {
    "id": "way/32885596",
    "name": "Француски гробишта",
    "city": "Скопје",
    "category": "Споменик/Градба",
    "lat": "42.0083586",
    "lon": "21.4304695"
  },
  {
    "id": "way/159068224",
    "name": "Споменик Костурница",
    "city": "Куманово",
    "category": "Споменик/Градба",
    "lat": "42.1455574",
    "lon": "21.722504"
  },
  {
    "id": "way/192125506",
    "name": "Китино Кале",
    "city": "Кичево",
    "category": "Споменик/Градба",
    "lat": "41.5130747",
    "lon": "20.9666504"
  },
  {
    "id": "way/239422349",
    "name": "Порта Македонија",
    "city": "Скопје",
    "category": "Споменик/Градба",
    "lat": "41.9944587",
    "lon": "21.4322421"
  },
  {
    "id": "way/445947375",
    "name": "Гоце Делчев",
    "city": "Штип",
    "category": "Споменик/Градба",
    "lat": "41.7363697",
    "lon": "22.1819881"
  },
  {
    "id": "way/553070358",
    "name": "Колонада",
    "city": "Скопје",
    "category": "Споменик/Градба",
    "lat": "41.9963096",
    "lon": "21.4359129"
  },
  {
    "id": "way/679215630",
    "name": "Александар Македонски",
    "city": "Штип",
    "category": "Споменик/Градба",
    "lat": "41.7372303",
    "lon": "22.1940832"
  },
  {
    "id": "way/704079412",
    "name": "Велешки Гемиџија",
    "city": "Велес",
    "category": "Споменик/Градба",
    "lat": "41.7161653",
    "lon": "21.7833978"
  },
  {
    "id": "way/1044325422",
    "name": "Споменин на Слободата",
    "city": "Кочани",
    "category": "Споменик/Градба",
    "lat": "41.9191013",
    "lon": "22.4068486"
  },
  {
    "id": "way/1146996488",
    "name": "Св Кирил и Методи",
    "city": "Штип",
    "category": "Споменик/Градба",
    "lat": "41.736292",
    "lon": "22.1882763"
  },
  {
    "id": "way/411079115",
    "name": "Камен мост",
    "city": "Скопје",
    "category": "Споменик/Градба",
    "lat": "41.997767",
    "lon": "21.4341939"
  },
  {
    "id": "node/367853384",
    "name": "Питу Гули",
    "city": "Скопје",
    "category": "Споменик/Градба",
    "lat": "41.9936737",
    "lon": "21.433319"
  },
  {
    "id": "node/367860262",
    "name": "Гоце Делчев",
    "city": "Скопје",
    "category": "Споменик/Градба",
    "lat": "42.0032812",
    "lon": "21.4233737"
  },
  {
    "id": "node/382635381",
    "name": "Костурница",
    "city": "Кавадарци",
    "category": "Споменик/Градба",
    "lat": "41.4325212",
    "lon": "22.0228463"
  },
  {
    "id": "node/444334991",
    "name": "Споменик на слободата",
    "city": "Кочани",
    "category": "Споменик/Градба",
    "lat": "41.9188903",
    "lon": "22.4069917"
  },
  {
    "id": "node/473902990",
    "name": "WWII Battle - 17th Macedonian Brigade ws Bulgarian army",
    "city": "Крива Паланка",
    "category": "Споменик/Градба",
    "lat": "42.2916094",
    "lon": "22.3507979"
  },
  {
    "id": "node/908273421",
    "name": "Споменик на Александар Македонски",
    "city": "Скопје",
    "category": "Споменик/Градба",
    "lat": "41.9959035",
    "lon": "21.4314474"
  },
  {
    "id": "node/1708412126",
    "name": "Zena",
    "city": "Куманово",
    "category": "Споменик/Градба",
    "lat": "42.1355189",
    "lon": "21.7200501"
  },
  {
    "id": "node/1831180502",
    "name": "Манастир Св. Андреј",
    "city": "Скопје",
    "category": "Споменик/Градба",
    "lat": "41.9505936",
    "lon": "21.2991931"
  },
  {
    "id": "node/1857486060",
    "name": "Филип Втори",
    "city": "Скопје",
    "category": "Споменик/Градба",
    "lat": "42.0017233",
    "lon": "21.4617772"
  },
  {
    "id": "node/1859114111",
    "name": "Филип II Македонски",
    "city": "Скопје",
    "category": "Споменик/Градба",
    "lat": "41.9984602",
    "lon": "21.4349949"
  },
  {
    "id": "node/1866944575",
    "name": "Св. Климент Охридски",
    "city": "Скопје",
    "category": "Споменик/Градба",
    "lat": "41.9983057",
    "lon": "21.4254968"
  },
  {
    "id": "node/1867151652",
    "name": "Скендербег",
    "city": "Скопје",
    "category": "Споменик/Градба",
    "lat": "41.9993163",
    "lon": "21.437162"
  },
  {
    "id": "node/1867606193",
    "name": "Маркова Нога",
    "city": "Преспа",
    "category": "Споменик/Градба",
    "lat": "40.8570205",
    "lon": "21.1195933"
  },
  {
    "id": "node/1995790447",
    "name": "Јосип Броз - Тито",
    "city": "Куманово",
    "category": "Споменик/Градба",
    "lat": "42.1355778",
    "lon": "21.7194275"
  },
  {
    "id": "node/2026119373",
    "name": "Sahat Kula",
    "city": "Гостивар",
    "category": "Споменик/Градба",
    "lat": "41.794932",
    "lon": "20.9108574"
  },
  {
    "id": "node/2026911763",
    "name": "Саат кула",
    "city": "Кичево",
    "category": "Споменик/Градба",
    "lat": "41.5119269",
    "lon": "20.9702432"
  },
  {
    "id": "node/2026930302",
    "name": "Саат кула",
    "city": "Велес",
    "category": "Споменик/Градба",
    "lat": "41.7140782",
    "lon": "21.7840512"
  },
  {
    "id": "node/2136716883",
    "name": "Куде сат",
    "city": "Куманово",
    "category": "Споменик/Градба",
    "lat": "42.1346962",
    "lon": "21.7192303"
  },
  {
    "id": "node/2189840728",
    "name": "Народен Херој Кузман Јосифоски-Питу",
    "city": "Прилеп",
    "category": "Споменик/Градба",
    "lat": "41.3451182",
    "lon": "21.5519842"
  },
  {
    "id": "node/2189840898",
    "name": "Пеце Атанасоски",
    "city": "Прилеп",
    "category": "Споменик/Градба",
    "lat": "41.3451518",
    "lon": "21.554267"
  },
  {
    "id": "node/2189840958",
    "name": "Ѓорче Петров",
    "city": "Прилеп",
    "category": "Споменик/Градба",
    "lat": "41.3452617",
    "lon": "21.5522173"
  },
  {
    "id": "node/2360747213",
    "name": "Два Коња",
    "city": "Гевгелија",
    "category": "Споменик/Градба",
    "lat": "41.1458586",
    "lon": "22.5001795"
  },
  {
    "id": "node/2545342051",
    "name": "Преспанско Советување",
    "city": "Преспа",
    "category": "Споменик/Градба",
    "lat": "40.9765203",
    "lon": "20.9119981"
  },
  {
    "id": "node/2598104053",
    "name": "Карпалак",
    "city": "Прилеп",
    "category": "Споменик/Градба",
    "lat": "41.3475544",
    "lon": "21.5564074"
  },
  {
    "id": "node/2759245083",
    "name": "Свети Климент Охридски",
    "city": "Охрид",
    "category": "Споменик/Градба",
    "lat": "41.1126936",
    "lon": "20.7995376"
  },
  {
    "id": "node/2759253188",
    "name": "Свети Кирил и Методиј",
    "city": "Охрид",
    "category": "Споменик/Градба",
    "lat": "41.1120476",
    "lon": "20.799994"
  },
  {
    "id": "node/2759263738",
    "name": "Свети Наум Охридски Чудотворец",
    "city": "Охрид",
    "category": "Споменик/Градба",
    "lat": "41.1122955",
    "lon": "20.7990226"
  },
  {
    "id": "node/2851570672",
    "name": "Христо Узунов",
    "city": "Кичево",
    "category": "Споменик/Градба",
    "lat": "41.4182291",
    "lon": "21.0770931"
  },
  {
    "id": "node/3039854149",
    "name": "Споменик на жртви од НОВ",
    "city": "Тетово",
    "category": "Споменик/Градба",
    "lat": "41.9062629",
    "lon": "20.9636151"
  },
  {
    "id": "node/3409068903",
    "name": "Александар Македонски",
    "city": "Прилеп",
    "category": "Споменик/Градба",
    "lat": "41.3460556",
    "lon": "21.5524989"
  },
  {
    "id": "node/3409068904",
    "name": "Методија Андонов-Ченто",
    "city": "Прилеп",
    "category": "Споменик/Градба",
    "lat": "41.3462544",
    "lon": "21.5528281"
  },
  {
    "id": "node/3409074126",
    "name": "Св. Никола",
    "city": "Прилеп",
    "category": "Споменик/Градба",
    "lat": "41.3462194",
    "lon": "21.553243"
  },
  {
    "id": "node/3456913802",
    "name": "Карпалак 2001",
    "city": "Прилеп",
    "category": "Споменик/Градба",
    "lat": "41.3434323",
    "lon": "21.5479723"
  },
  {
    "id": "node/3457966074",
    "name": "Крипта",
    "city": "Прилеп",
    "category": "Споменик/Градба",
    "lat": "41.3341123",
    "lon": "21.554646"
  },
  {
    "id": "node/3642663981",
    "name": "Итар Пејо",
    "city": "Прилеп",
    "category": "Споменик/Градба",
    "lat": "41.345456",
    "lon": "21.5548417"
  },
  {
    "id": "node/3696656682",
    "name": "Кула",
    "city": "Делчево",
    "category": "Споменик/Градба",
    "lat": "41.9425359",
    "lon": "22.7954411"
  },
  {
    "id": "node/3713662739",
    "name": "Josip Broz Tito",
    "city": "Скопје",
    "category": "Споменик/Градба",
    "lat": "41.9952169",
    "lon": "21.426153"
  },
  {
    "id": "node/4078676807",
    "name": "Леонид Јанков",
    "city": "Гевгелија",
    "category": "Споменик/Градба",
    "lat": "41.139367",
    "lon": "22.5093733"
  },
  {
    "id": "node/4128156209",
    "name": "Св. Кирил и Методиј",
    "city": "Скопје",
    "category": "Споменик/Градба",
    "lat": "41.9977079",
    "lon": "21.4339766"
  },
  {
    "id": "node/4128156210",
    "name": "Св. Климент Охридски и Наум Охридски Чудотворец",
    "city": "Скопје",
    "category": "Споменик/Градба",
    "lat": "41.9975624",
    "lon": "21.4341509"
  },
  {
    "id": "node/4149143991",
    "name": "Цар Самоил",
    "city": "Скопје",
    "category": "Споменик/Градба",
    "lat": "41.9953917",
    "lon": "21.4313414"
  },
  {
    "id": "node/4161113452",
    "name": "Даме Груев",
    "city": "Скопје",
    "category": "Споменик/Градба",
    "lat": "41.9964949",
    "lon": "21.4321474"
  },
  {
    "id": "node/4161113453",
    "name": "Јустинијан I",
    "city": "Скопје",
    "category": "Споменик/Градба",
    "lat": "41.9968799",
    "lon": "21.4323054"
  },
  {
    "id": "node/4161249330",
    "name": "Олимпија",
    "city": "Скопје",
    "category": "Споменик/Градба",
    "lat": "41.9979046",
    "lon": "21.4344182"
  },
  {
    "id": "node/4183631289",
    "name": "Прометеј",
    "city": "Скопје",
    "category": "Споменик/Градба",
    "lat": "41.993303",
    "lon": "21.4337226"
  },
  {
    "id": "node/4242928035",
    "name": "Тодор Александров",
    "city": "Скопје",
    "category": "Споменик/Градба",
    "lat": "41.9834333",
    "lon": "21.439106"
  },
  {
    "id": "node/4266031693",
    "name": "Стара Рампа",
    "city": "Скопје",
    "category": "Споменик/Градба",
    "lat": "41.986749",
    "lon": "21.4369668"
  },
  {
    "id": "node/4271160712",
    "name": "Бегова кула",
    "city": "Скопје",
    "category": "Споменик/Градба",
    "lat": "41.9936684",
    "lon": "21.4317487"
  },
  {
    "id": "node/4278022934",
    "name": "Гоце Делчев",
    "city": "Струмица",
    "category": "Споменик/Градба",
    "lat": "41.4166941",
    "lon": "22.7549207"
  },
  {
    "id": "node/4351691820",
    "name": "Свети Наум",
    "city": "Охрид",
    "category": "Споменик/Градба",
    "lat": "40.9142149",
    "lon": "20.7412554"
  },
  {
    "id": "node/4357166289",
    "name": "Споменик на загинатите евреи",
    "city": "Штип",
    "category": "Споменик/Градба",
    "lat": "41.736405",
    "lon": "22.1903758"
  },
  {
    "id": "node/4365876494",
    "name": "Мустафа-пашина џамија",
    "city": "Скопје",
    "category": "Споменик/Градба",
    "lat": "42.000853",
    "lon": "21.4375046"
  },
  {
    "id": "node/4380846206",
    "name": "Споменик на Јуриј Гагарин",
    "city": "Скопје",
    "category": "Споменик/Градба",
    "lat": "41.9949279",
    "lon": "21.4108745"
  },
  {
    "id": "node/4386764089",
    "name": "Никола Карев",
    "city": "Скопје",
    "category": "Споменик/Градба",
    "lat": "41.9930188",
    "lon": "21.4332009"
  },
  {
    "id": "node/4477202789",
    "name": "Вера Јоциќ",
    "city": "Скопје",
    "category": "Споменик/Градба",
    "lat": "42.0016804",
    "lon": "21.4283664"
  },
  {
    "id": "node/4575831104",
    "name": "Марко Мрњавчевиќ",
    "city": "Прилеп",
    "category": "Споменик/Градба",
    "lat": "41.3455416",
    "lon": "21.5532375"
  },
  {
    "id": "node/4575841428",
    "name": "Круме Кепески",
    "city": "Прилеп",
    "category": "Споменик/Градба",
    "lat": "41.3450704",
    "lon": "21.5505634"
  },
  {
    "id": "node/4575841429",
    "name": "Блаже Конески",
    "city": "Прилеп",
    "category": "Споменик/Градба",
    "lat": "41.3451329",
    "lon": "21.5506707"
  },
  {
    "id": "node/4575841430",
    "name": "Марко Цепенков",
    "city": "Прилеп",
    "category": "Споменик/Градба",
    "lat": "41.3451792",
    "lon": "21.5505581"
  },
  {
    "id": "node/4751492691",
    "name": "Споменик на слободата",
    "city": "Гевгелија",
    "category": "Споменик/Градба",
    "lat": "41.158263",
    "lon": "22.5006786"
  },
  {
    "id": "node/4907386415",
    "name": "Борецот",
    "city": "Прилеп",
    "category": "Споменик/Градба",
    "lat": "41.3738524",
    "lon": "21.5025867"
  },
  {
    "id": "node/5812672954",
    "name": "Doma",
    "city": "Скопје",
    "category": "Споменик/Градба",
    "lat": "42.0169571",
    "lon": "21.4434502"
  },
  {
    "id": "node/6054048485",
    "name": "Методија Андонов - Ченто",
    "city": "Скопје",
    "category": "Споменик/Градба",
    "lat": "41.9957136",
    "lon": "21.4306041"
  },
  {
    "id": "node/6136130985",
    "name": "terminal mitnitsa tetovo",
    "city": "Тетово",
    "category": "Споменик/Градба",
    "lat": "41.9974433",
    "lon": "20.9681527"
  },
  {
    "id": "node/6136130988",
    "name": "patarina-160",
    "city": "Скопје",
    "category": "Споменик/Градба",
    "lat": "41.9885405",
    "lon": "21.2926787"
  },
  {
    "id": "node/6337100523",
    "name": "Kanda - Geoglif Sv. Nikole",
    "city": "Овче Поле",
    "category": "Споменик/Градба",
    "lat": "41.8289715",
    "lon": "21.9562049"
  },
  {
    "id": "node/6563726510",
    "name": "Mirče Acev Bataljon",
    "city": "Охрид",
    "category": "Споменик/Градба",
    "lat": "41.3747079",
    "lon": "20.7630424"
  },
  {
    "id": "node/6901630767",
    "name": "Љубе Грујоски",
    "city": "Прилеп",
    "category": "Споменик/Градба",
    "lat": "41.2754595",
    "lon": "21.3684104"
  },
  {
    "id": "node/7504362426",
    "name": "Толе Паша",
    "city": "Прилеп",
    "category": "Споменик/Градба",
    "lat": "41.2064953",
    "lon": "21.6536957"
  },
  {
    "id": "node/7796229745",
    "name": "Гоце Делчев",
    "city": "Кичево",
    "category": "Споменик/Градба",
    "lat": "41.4831122",
    "lon": "20.9229426"
  },
  {
    "id": "node/7947878810",
    "name": "Споменик на Никола Карев",
    "city": "Кочани",
    "category": "Споменик/Градба",
    "lat": "41.9156602",
    "lon": "22.412778"
  },
  {
    "id": "node/8402562316",
    "name": "VAM-304",
    "city": "Скопје",
    "category": "Споменик/Градба",
    "lat": "41.8668125",
    "lon": "21.6650899"
  },
  {
    "id": "node/8402601134",
    "name": "МАР-7712",
    "city": "Струмица",
    "category": "Споменик/Градба",
    "lat": "41.4498577",
    "lon": "22.6491133"
  },
  {
    "id": "node/8433354043",
    "name": "Ослободителите на Скопје",
    "city": "Скопје",
    "category": "Споменик/Градба",
    "lat": "41.9998632",
    "lon": "21.4292436"
  },
  {
    "id": "node/8677386085",
    "name": "Вејце",
    "city": "Тетово",
    "category": "Споменик/Градба",
    "lat": "42.0673767",
    "lon": "20.9185104"
  },
  {
    "id": "node/8880547039",
    "name": "Генерал Михаило Апостолски",
    "city": "Скопје",
    "category": "Споменик/Градба",
    "lat": "41.9998618",
    "lon": "21.4485415"
  },
  {
    "id": "node/8883349543",
    "name": "Генерал Михајло Апостолски",
    "city": "Скопје",
    "category": "Споменик/Градба",
    "lat": "41.9988251",
    "lon": "21.4506665"
  },
  {
    "id": "node/8883349544",
    "name": "Krste Petkov Misirkov",
    "city": "Скопје",
    "category": "Споменик/Градба",
    "lat": "41.9960184",
    "lon": "21.4412009"
  },
  {
    "id": "node/8883349545",
    "name": "Blaže Koneski",
    "city": "Скопје",
    "category": "Споменик/Градба",
    "lat": "41.9960802",
    "lon": "21.4408764"
  },
  {
    "id": "node/8951219184",
    "name": "Фаќач на чесниот крст",
    "city": "Охрид",
    "category": "Споменик/Градба",
    "lat": "41.1119818",
    "lon": "20.799333"
  },
  {
    "id": "node/9026624343",
    "name": "Павел Шатев",
    "city": "Скопје",
    "category": "Споменик/Градба",
    "lat": "41.9945304",
    "lon": "21.4326511"
  },
  {
    "id": "node/9078062189",
    "name": "Невена Георгиева-Дуња",
    "city": "Скопје",
    "category": "Споменик/Градба",
    "lat": "41.993726",
    "lon": "21.4332709"
  },
  {
    "id": "node/9080920713",
    "name": "Ѓоко Лазаревски",
    "city": "Тетово",
    "category": "Споменик/Градба",
    "lat": "42.0640097",
    "lon": "21.0288552"
  },
  {
    "id": "node/9086030879",
    "name": "Загинати Лешочани во војните 1903-2001",
    "city": "Тетово",
    "category": "Споменик/Градба",
    "lat": "42.0668701",
    "lon": "21.0285176"
  },
  {
    "id": "node/9661472617",
    "name": "Браќата Просветители Св. Кирил и Методиј",
    "city": "Кочани",
    "category": "Споменик/Градба",
    "lat": "41.9135927",
    "lon": "22.4105061"
  },
  {
    "id": "node/9661483288",
    "name": "Љупчо Сантов",
    "city": "Кочани",
    "category": "Споменик/Градба",
    "lat": "41.9143473",
    "lon": "22.410612"
  },
  {
    "id": "node/9927093810",
    "name": "Naim Frasheri",
    "city": "Гостивар",
    "category": "Споменик/Градба",
    "lat": "41.8781835",
    "lon": "20.8876605"
  },
  {
    "id": "node/9927105104",
    "name": "Naser Ademi",
    "city": "Гостивар",
    "category": "Споменик/Градба",
    "lat": "41.878351",
    "lon": "20.8835051"
  },
  {
    "id": "node/9927105105",
    "name": "Deshmoret e Ushtrise Clirimtare Kombetare",
    "city": "Гостивар",
    "category": "Споменик/Градба",
    "lat": "41.8782156",
    "lon": "20.883467"
  }
]